header: 
  seq: 1205
  stamp: 
    secs: 0
    nsecs:         0
  frame_id: /robot_frame
pose: 
  position: 
    x: 4.20634253268
    y: -0.178037265951
    z: 0.0
  orientation: 
    x: 0.0
    y: 0.0
    z: -0.0211487528984
    w: 0.999776340114
---
header: 
  seq: 1206
  stamp: 
    secs: 0
    nsecs:         0
  frame_id: /robot_frame
pose: 
  position: 
    x: 4.20634253268
    y: -0.178037265951
    z: 0.0
  orientation: 
    x: 0.0
    y: 0.0
    z: -0.0211487528984
    w: 0.999776340114
---
header: 
  seq: 1207
  stamp: 
    secs: 0
    nsecs:         0
  frame_id: /robot_frame
pose: 
  position: 
    x: 4.20634253268
    y: -0.178037265951
    z: 0.0
  orientation: 
    x: 0.0
    y: 0.0
    z: -0.0211487528984
    w: 0.999776340114
---
header: 
  seq: 1208
  stamp: 
    secs: 0
    nsecs:         0
  frame_id: /robot_frame
pose: 
  position: 
    x: 4.20634253268
    y: -0.178037265951
    z: 0.0
  orientation: 
    x: 0.0
    y: 0.0
    z: -0.0211487528984
    w: 0.999776340114
---
header: 
  seq: 1209
  stamp: 
    secs: 0
    nsecs:         0
  frame_id: /robot_frame
pose: 
  position: 
    x: 4.20634253268
    y: -0.178037265951
    z: 0.0
  orientation: 
    x: 0.0
    y: 0.0
    z: -0.0211487528984
    w: 0.999776340114
---
header: 
  seq: 1210
  stamp: 
    secs: 0
    nsecs:         0
  frame_id: /robot_frame
pose: 
  position: 
    x: 4.6044342818
    y: -0.24082414788
    z: 0.0
  orientation: 
    x: 0.0
    y: 0.0
    z: -0.0261245488764
    w: 0.999658695729
---
header: 
  seq: 1211
  stamp: 
    secs: 0
    nsecs:         0
  frame_id: /robot_frame
pose: 
  position: 
    x: 4.6044342818
    y: -0.24082414788
    z: 0.0
  orientation: 
    x: 0.0
    y: 0.0
    z: -0.0261245488764
    w: 0.999658695729
---
header: 
  seq: 1212
  stamp: 
    secs: 0
    nsecs:         0
  frame_id: /robot_frame
pose: 
  position: 
    x: 4.6044342818
    y: -0.24082414788
    z: 0.0
  orientation: 
    x: 0.0
    y: 0.0
    z: -0.0261245488764
    w: 0.999658695729
---
header: 
  seq: 1213
  stamp: 
    secs: 0
    nsecs:         0
  frame_id: /robot_frame
pose: 
  position: 
    x: 4.6044342818
    y: -0.24082414788
    z: 0.0
  orientation: 
    x: 0.0
    y: 0.0
    z: -0.0261245488764
    w: 0.999658695729
---
header: 
  seq: 1214
  stamp: 
    secs: 0
    nsecs:         0
  frame_id: /robot_frame
pose: 
  position: 
    x: 4.6044342818
    y: -0.24082414788
    z: 0.0
  orientation: 
    x: 0.0
    y: 0.0
    z: -0.0261245488764
    w: 0.999658695729
---
header: 
  seq: 1215
  stamp: 
    secs: 0
    nsecs:         0
  frame_id: /robot_frame
pose: 
  position: 
    x: 4.6044342818
    y: -0.24082414788
    z: 0.0
  orientation: 
    x: 0.0
    y: 0.0
    z: -0.0261245488764
    w: 0.999658695729
---
header: 
  seq: 1216
  stamp: 
    secs: 0
    nsecs:         0
  frame_id: /robot_frame
pose: 
  position: 
    x: 4.6044342818
    y: -0.24082414788
    z: 0.0
  orientation: 
    x: 0.0
    y: 0.0
    z: -0.0261245488764
    w: 0.999658695729
---
header: 
  seq: 1217
  stamp: 
    secs: 0
    nsecs:         0
  frame_id: /robot_frame
pose: 
  position: 
    x: 5.45719312964
    y: -0.385261492917
    z: 0.0
  orientation: 
    x: 0.0
    y: 0.0
    z: -0.0352327421926
    w: 0.999379134202
---
header: 
  seq: 1218
  stamp: 
    secs: 0
    nsecs:         0
  frame_id: /robot_frame
pose: 
  position: 
    x: 5.45719312964
    y: -0.385261492917
    z: 0.0
  orientation: 
    x: 0.0
    y: 0.0
    z: -0.0352327421926
    w: 0.999379134202
---
header: 
  seq: 1219
  stamp: 
    secs: 0
    nsecs:         0
  frame_id: /robot_frame
pose: 
  position: 
    x: 5.45719312964
    y: -0.385261492917
    z: 0.0
  orientation: 
    x: 0.0
    y: 0.0
    z: -0.0352327421926
    w: 0.999379134202
---
header: 
  seq: 1220
  stamp: 
    secs: 0
    nsecs:         0
  frame_id: /robot_frame
pose: 
  position: 
    x: 5.45719312964
    y: -0.385261492917
    z: 0.0
  orientation: 
    x: 0.0
    y: 0.0
    z: -0.0352327421926
    w: 0.999379134202
---
header: 
  seq: 1221
  stamp: 
    secs: 0
    nsecs:         0
  frame_id: /robot_frame
pose: 
  position: 
    x: 5.45719312964
    y: -0.385261492917
    z: 0.0
  orientation: 
    x: 0.0
    y: 0.0
    z: -0.0352327421926
    w: 0.999379134202
---
header: 
  seq: 1222
  stamp: 
    secs: 0
    nsecs:         0
  frame_id: /robot_frame
pose: 
  position: 
    x: 5.45719312964
    y: -0.385261492917
    z: 0.0
  orientation: 
    x: 0.0
    y: 0.0
    z: -0.0352327421926
    w: 0.999379134202
---
header: 
  seq: 1223
  stamp: 
    secs: 0
    nsecs:         0
  frame_id: /robot_frame
pose: 
  position: 
    x: 4.64177551008
    y: -0.308218466113
    z: 0.0
  orientation: 
    x: 0.0
    y: 0.0
    z: -0.0331457543102
    w: 0.999450528526
---
header: 
  seq: 1224
  stamp: 
    secs: 0
    nsecs:         0
  frame_id: /robot_frame
pose: 
  position: 
    x: 4.64177551008
    y: -0.308218466113
    z: 0.0
  orientation: 
    x: 0.0
    y: 0.0
    z: -0.0331457543102
    w: 0.999450528526
---
header: 
  seq: 1225
  stamp: 
    secs: 0
    nsecs:         0
  frame_id: /robot_frame
pose: 
  position: 
    x: 4.64177551008
    y: -0.308218466113
    z: 0.0
  orientation: 
    x: 0.0
    y: 0.0
    z: -0.0331457543102
    w: 0.999450528526
---
header: 
  seq: 1226
  stamp: 
    secs: 0
    nsecs:         0
  frame_id: /robot_frame
pose: 
  position: 
    x: 4.64177551008
    y: -0.308218466113
    z: 0.0
  orientation: 
    x: 0.0
    y: 0.0
    z: -0.0331457543102
    w: 0.999450528526
---
header: 
  seq: 1227
  stamp: 
    secs: 0
    nsecs:         0
  frame_id: /robot_frame
pose: 
  position: 
    x: 4.64177551008
    y: -0.308218466113
    z: 0.0
  orientation: 
    x: 0.0
    y: 0.0
    z: -0.0331457543102
    w: 0.999450528526
---
header: 
  seq: 1228
  stamp: 
    secs: 0
    nsecs:         0
  frame_id: /robot_frame
pose: 
  position: 
    x: 4.64177551008
    y: -0.308218466113
    z: 0.0
  orientation: 
    x: 0.0
    y: 0.0
    z: -0.0331457543102
    w: 0.999450528526
---
header: 
  seq: 1229
  stamp: 
    secs: 0
    nsecs:         0
  frame_id: /robot_frame
pose: 
  position: 
    x: 4.64177551008
    y: -0.308218466113
    z: 0.0
  orientation: 
    x: 0.0
    y: 0.0
    z: -0.0331457543102
    w: 0.999450528526
---
header: 
  seq: 1230
  stamp: 
    secs: 0
    nsecs:         0
  frame_id: /robot_frame
pose: 
  position: 
    x: 3.58747714512
    y: -0.112684694131
    z: 0.0
  orientation: 
    x: 0.0
    y: 0.0
    z: -0.015699476902
    w: 0.999876755618
---
header: 
  seq: 1231
  stamp: 
    secs: 0
    nsecs:         0
  frame_id: /robot_frame
pose: 
  position: 
    x: 3.58747714512
    y: -0.112684694131
    z: 0.0
  orientation: 
    x: 0.0
    y: 0.0
    z: -0.015699476902
    w: 0.999876755618
---
header: 
  seq: 1232
  stamp: 
    secs: 0
    nsecs:         0
  frame_id: /robot_frame
pose: 
  position: 
    x: 3.58747714512
    y: -0.112684694131
    z: 0.0
  orientation: 
    x: 0.0
    y: 0.0
    z: -0.015699476902
    w: 0.999876755618
---
header: 
  seq: 1233
  stamp: 
    secs: 0
    nsecs:         0
  frame_id: /robot_frame
pose: 
  position: 
    x: 3.58747714512
    y: -0.112684694131
    z: 0.0
  orientation: 
    x: 0.0
    y: 0.0
    z: -0.015699476902
    w: 0.999876755618
---
header: 
  seq: 1234
  stamp: 
    secs: 0
    nsecs:         0
  frame_id: /robot_frame
pose: 
  position: 
    x: 3.58747714512
    y: -0.112684694131
    z: 0.0
  orientation: 
    x: 0.0
    y: 0.0
    z: -0.015699476902
    w: 0.999876755618
---
header: 
  seq: 1235
  stamp: 
    secs: 0
    nsecs:         0
  frame_id: /robot_frame
pose: 
  position: 
    x: 3.58747714512
    y: -0.112684694131
    z: 0.0
  orientation: 
    x: 0.0
    y: 0.0
    z: -0.015699476902
    w: 0.999876755618
---
header: 
  seq: 1236
  stamp: 
    secs: 0
    nsecs:         0
  frame_id: /robot_frame
pose: 
  position: 
    x: 3.58747714512
    y: -0.112684694131
    z: 0.0
  orientation: 
    x: 0.0
    y: 0.0
    z: -0.015699476902
    w: 0.999876755618
---
header: 
  seq: 1237
  stamp: 
    secs: 0
    nsecs:         0
  frame_id: /robot_frame
pose: 
  position: 
    x: 3.58747714512
    y: -0.112684694131
    z: 0.0
  orientation: 
    x: 0.0
    y: 0.0
    z: -0.015699476902
    w: 0.999876755618
---
header: 
  seq: 1238
  stamp: 
    secs: 0
    nsecs:         0
  frame_id: /robot_frame
pose: 
  position: 
    x: 3.61629312003
    y: 0.0239093623728
    z: 0.0
  orientation: 
    x: 0.0
    y: 0.0
    z: 0.00330572905193
    w: 0.999994536063
---
header: 
  seq: 1239
  stamp: 
    secs: 0
    nsecs:         0
  frame_id: /robot_frame
pose: 
  position: 
    x: 3.61629312003
    y: 0.0239093623728
    z: 0.0
  orientation: 
    x: 0.0
    y: 0.0
    z: 0.00330572905193
    w: 0.999994536063
---
header: 
  seq: 1240
  stamp: 
    secs: 0
    nsecs:         0
  frame_id: /robot_frame
pose: 
  position: 
    x: 3.61629312003
    y: 0.0239093623728
    z: 0.0
  orientation: 
    x: 0.0
    y: 0.0
    z: 0.00330572905193
    w: 0.999994536063
---
header: 
  seq: 1241
  stamp: 
    secs: 0
    nsecs:         0
  frame_id: /robot_frame
pose: 
  position: 
    x: 3.61629312003
    y: 0.0239093623728
    z: 0.0
  orientation: 
    x: 0.0
    y: 0.0
    z: 0.00330572905193
    w: 0.999994536063
---
header: 
  seq: 1242
  stamp: 
    secs: 0
    nsecs:         0
  frame_id: /robot_frame
pose: 
  position: 
    x: 3.61629312003
    y: 0.0239093623728
    z: 0.0
  orientation: 
    x: 0.0
    y: 0.0
    z: 0.00330572905193
    w: 0.999994536063
---
header: 
  seq: 1243
  stamp: 
    secs: 0
    nsecs:         0
  frame_id: /robot_frame
pose: 
  position: 
    x: 3.61629312003
    y: 0.0239093623728
    z: 0.0
  orientation: 
    x: 0.0
    y: 0.0
    z: 0.00330572905193
    w: 0.999994536063
---
header: 
  seq: 1244
  stamp: 
    secs: 0
    nsecs:         0
  frame_id: /robot_frame
pose: 
  position: 
    x: 3.61629312003
    y: 0.0239093623728
    z: 0.0
  orientation: 
    x: 0.0
    y: 0.0
    z: 0.00330572905193
    w: 0.999994536063
---
header: 
  seq: 1245
  stamp: 
    secs: 0
    nsecs:         0
  frame_id: /robot_frame
pose: 
  position: 
    x: 3.47792984505
    y: 0.0876319931272
    z: 0.0
  orientation: 
    x: 0.0
    y: 0.0
    z: 0.0125952998673
    w: 0.999920676064
---
header: 
  seq: 1246
  stamp: 
    secs: 0
    nsecs:         0
  frame_id: /robot_frame
pose: 
  position: 
    x: 3.47792984505
    y: 0.0876319931272
    z: 0.0
  orientation: 
    x: 0.0
    y: 0.0
    z: 0.0125952998673
    w: 0.999920676064
---
header: 
  seq: 1247
  stamp: 
    secs: 0
    nsecs:         0
  frame_id: /robot_frame
pose: 
  position: 
    x: 3.47792984505
    y: 0.0876319931272
    z: 0.0
  orientation: 
    x: 0.0
    y: 0.0
    z: 0.0125952998673
    w: 0.999920676064
---
header: 
  seq: 1248
  stamp: 
    secs: 0
    nsecs:         0
  frame_id: /robot_frame
pose: 
  position: 
    x: 3.47792984505
    y: 0.0876319931272
    z: 0.0
  orientation: 
    x: 0.0
    y: 0.0
    z: 0.0125952998673
    w: 0.999920676064
---
header: 
  seq: 1249
  stamp: 
    secs: 0
    nsecs:         0
  frame_id: /robot_frame
pose: 
  position: 
    x: 3.47792984505
    y: 0.0876319931272
    z: 0.0
  orientation: 
    x: 0.0
    y: 0.0
    z: 0.0125952998673
    w: 0.999920676064
---
header: 
  seq: 1250
  stamp: 
    secs: 0
    nsecs:         0
  frame_id: /robot_frame
pose: 
  position: 
    x: 3.47792984505
    y: 0.0876319931272
    z: 0.0
  orientation: 
    x: 0.0
    y: 0.0
    z: 0.0125952998673
    w: 0.999920676064
---
header: 
  seq: 1251
  stamp: 
    secs: 0
    nsecs:         0
  frame_id: /robot_frame
pose: 
  position: 
    x: 3.34279814925
    y: 0.0857380493424
    z: 0.0
  orientation: 
    x: 0.0
    y: 0.0
    z: 0.0128211311984
    w: 0.999917805919
---
header: 
  seq: 1252
  stamp: 
    secs: 0
    nsecs:         0
  frame_id: /robot_frame
pose: 
  position: 
    x: 3.34279814925
    y: 0.0857380493424
    z: 0.0
  orientation: 
    x: 0.0
    y: 0.0
    z: 0.0128211311984
    w: 0.999917805919
---
header: 
  seq: 1253
  stamp: 
    secs: 0
    nsecs:         0
  frame_id: /robot_frame
pose: 
  position: 
    x: 3.34279814925
    y: 0.0857380493424
    z: 0.0
  orientation: 
    x: 0.0
    y: 0.0
    z: 0.0128211311984
    w: 0.999917805919
---
header: 
  seq: 1254
  stamp: 
    secs: 0
    nsecs:         0
  frame_id: /robot_frame
pose: 
  position: 
    x: 3.34279814925
    y: 0.0857380493424
    z: 0.0
  orientation: 
    x: 0.0
    y: 0.0
    z: 0.0128211311984
    w: 0.999917805919
---
header: 
  seq: 1255
  stamp: 
    secs: 0
    nsecs:         0
  frame_id: /robot_frame
pose: 
  position: 
    x: 3.34279814925
    y: 0.0857380493424
    z: 0.0
  orientation: 
    x: 0.0
    y: 0.0
    z: 0.0128211311984
    w: 0.999917805919
---
header: 
  seq: 1256
  stamp: 
    secs: 0
    nsecs:         0
  frame_id: /robot_frame
pose: 
  position: 
    x: 3.34279814925
    y: 0.0857380493424
    z: 0.0
  orientation: 
    x: 0.0
    y: 0.0
    z: 0.0128211311984
    w: 0.999917805919
---
header: 
  seq: 1257
  stamp: 
    secs: 0
    nsecs:         0
  frame_id: /robot_frame
pose: 
  position: 
    x: 3.34279814925
    y: 0.0857380493424
    z: 0.0
  orientation: 
    x: 0.0
    y: 0.0
    z: 0.0128211311984
    w: 0.999917805919
---
header: 
  seq: 1258
  stamp: 
    secs: 0
    nsecs:         0
  frame_id: /robot_frame
pose: 
  position: 
    x: 3.34279814925
    y: 0.0857380493424
    z: 0.0
  orientation: 
    x: 0.0
    y: 0.0
    z: 0.0128211311984
    w: 0.999917805919
---
header: 
  seq: 1259
  stamp: 
    secs: 0
    nsecs:         0
  frame_id: /robot_frame
pose: 
  position: 
    x: 3.34279814925
    y: 0.0857380493424
    z: 0.0
  orientation: 
    x: 0.0
    y: 0.0
    z: 0.0128211311984
    w: 0.999917805919
---
header: 
  seq: 1260
  stamp: 
    secs: 0
    nsecs:         0
  frame_id: /robot_frame
pose: 
  position: 
    x: 3.34279814925
    y: 0.0857380493424
    z: 0.0
  orientation: 
    x: 0.0
    y: 0.0
    z: 0.0128211311984
    w: 0.999917805919
---
header: 
  seq: 1261
  stamp: 
    secs: 0
    nsecs:         0
  frame_id: /robot_frame
pose: 
  position: 
    x: 3.40529083411
    y: 0.137716813745
    z: 0.0
  orientation: 
    x: 0.0
    y: 0.0
    z: 0.0202086170033
    w: 0.999795785048
---
header: 
  seq: 1262
  stamp: 
    secs: 0
    nsecs:         0
  frame_id: /robot_frame
pose: 
  position: 
    x: 3.40529083411
    y: 0.137716813745
    z: 0.0
  orientation: 
    x: 0.0
    y: 0.0
    z: 0.0202086170033
    w: 0.999795785048
---
header: 
  seq: 1263
  stamp: 
    secs: 0
    nsecs:         0
  frame_id: /robot_frame
pose: 
  position: 
    x: 3.40529083411
    y: 0.137716813745
    z: 0.0
  orientation: 
    x: 0.0
    y: 0.0
    z: 0.0202086170033
    w: 0.999795785048
---
header: 
  seq: 1264
  stamp: 
    secs: 0
    nsecs:         0
  frame_id: /robot_frame
pose: 
  position: 
    x: 3.40529083411
    y: 0.137716813745
    z: 0.0
  orientation: 
    x: 0.0
    y: 0.0
    z: 0.0202086170033
    w: 0.999795785048
---
header: 
  seq: 1265
  stamp: 
    secs: 0
    nsecs:         0
  frame_id: /robot_frame
pose: 
  position: 
    x: 3.40529083411
    y: 0.137716813745
    z: 0.0
  orientation: 
    x: 0.0
    y: 0.0
    z: 0.0202086170033
    w: 0.999795785048
---
header: 
  seq: 1266
  stamp: 
    secs: 0
    nsecs:         0
  frame_id: /robot_frame
pose: 
  position: 
    x: 3.40529083411
    y: 0.137716813745
    z: 0.0
  orientation: 
    x: 0.0
    y: 0.0
    z: 0.0202086170033
    w: 0.999795785048
---
header: 
  seq: 1267
  stamp: 
    secs: 0
    nsecs:         0
  frame_id: /robot_frame
pose: 
  position: 
    x: 3.40529083411
    y: 0.137716813745
    z: 0.0
  orientation: 
    x: 0.0
    y: 0.0
    z: 0.0202086170033
    w: 0.999795785048
---
header: 
  seq: 1268
  stamp: 
    secs: 0
    nsecs:         0
  frame_id: /robot_frame
pose: 
  position: 
    x: 3.31710727586
    y: 0.261102073301
    z: 0.0
  orientation: 
    x: 0.0
    y: 0.0
    z: 0.0392658136912
    w: 0.999228800563
---
header: 
  seq: 1269
  stamp: 
    secs: 0
    nsecs:         0
  frame_id: /robot_frame
pose: 
  position: 
    x: 3.31710727586
    y: 0.261102073301
    z: 0.0
  orientation: 
    x: 0.0
    y: 0.0
    z: 0.0392658136912
    w: 0.999228800563
---
header: 
  seq: 1270
  stamp: 
    secs: 0
    nsecs:         0
  frame_id: /robot_frame
pose: 
  position: 
    x: 3.31710727586
    y: 0.261102073301
    z: 0.0
  orientation: 
    x: 0.0
    y: 0.0
    z: 0.0392658136912
    w: 0.999228800563
---
header: 
  seq: 1271
  stamp: 
    secs: 0
    nsecs:         0
  frame_id: /robot_frame
pose: 
  position: 
    x: 3.31710727586
    y: 0.261102073301
    z: 0.0
  orientation: 
    x: 0.0
    y: 0.0
    z: 0.0392658136912
    w: 0.999228800563
---
header: 
  seq: 1272
  stamp: 
    secs: 0
    nsecs:         0
  frame_id: /robot_frame
pose: 
  position: 
    x: 3.31710727586
    y: 0.261102073301
    z: 0.0
  orientation: 
    x: 0.0
    y: 0.0
    z: 0.0392658136912
    w: 0.999228800563
---
header: 
  seq: 1273
  stamp: 
    secs: 0
    nsecs:         0
  frame_id: /robot_frame
pose: 
  position: 
    x: 3.31710727586
    y: 0.261102073301
    z: 0.0
  orientation: 
    x: 0.0
    y: 0.0
    z: 0.0392658136912
    w: 0.999228800563
---
header: 
  seq: 1274
  stamp: 
    secs: 0
    nsecs:         0
  frame_id: /robot_frame
pose: 
  position: 
    x: 3.31710727586
    y: 0.261102073301
    z: 0.0
  orientation: 
    x: 0.0
    y: 0.0
    z: 0.0392658136912
    w: 0.999228800563
---
header: 
  seq: 1275
  stamp: 
    secs: 0
    nsecs:         0
  frame_id: /robot_frame
pose: 
  position: 
    x: 3.35254854342
    y: 0.405707730221
    z: 0.0
  orientation: 
    x: 0.0
    y: 0.0
    z: 0.0601781805649
    w: 0.998187650987
---
header: 
  seq: 1276
  stamp: 
    secs: 0
    nsecs:         0
  frame_id: /robot_frame
pose: 
  position: 
    x: 3.35254854342
    y: 0.405707730221
    z: 0.0
  orientation: 
    x: 0.0
    y: 0.0
    z: 0.0601781805649
    w: 0.998187650987
---
header: 
  seq: 1277
  stamp: 
    secs: 0
    nsecs:         0
  frame_id: /robot_frame
pose: 
  position: 
    x: 3.35254854342
    y: 0.405707730221
    z: 0.0
  orientation: 
    x: 0.0
    y: 0.0
    z: 0.0601781805649
    w: 0.998187650987
---
header: 
  seq: 1278
  stamp: 
    secs: 0
    nsecs:         0
  frame_id: /robot_frame
pose: 
  position: 
    x: 3.35254854342
    y: 0.405707730221
    z: 0.0
  orientation: 
    x: 0.0
    y: 0.0
    z: 0.0601781805649
    w: 0.998187650987
---
header: 
  seq: 1279
  stamp: 
    secs: 0
    nsecs:         0
  frame_id: /robot_frame
pose: 
  position: 
    x: 3.35254854342
    y: 0.405707730221
    z: 0.0
  orientation: 
    x: 0.0
    y: 0.0
    z: 0.0601781805649
    w: 0.998187650987
---
header: 
  seq: 1280
  stamp: 
    secs: 0
    nsecs:         0
  frame_id: /robot_frame
pose: 
  position: 
    x: 3.35254854342
    y: 0.405707730221
    z: 0.0
  orientation: 
    x: 0.0
    y: 0.0
    z: 0.0601781805649
    w: 0.998187650987
---
header: 
  seq: 1281
  stamp: 
    secs: 0
    nsecs:         0
  frame_id: /robot_frame
pose: 
  position: 
    x: 3.35254854342
    y: 0.405707730221
    z: 0.0
  orientation: 
    x: 0.0
    y: 0.0
    z: 0.0601781805649
    w: 0.998187650987
---
header: 
  seq: 1282
  stamp: 
    secs: 0
    nsecs:         0
  frame_id: /robot_frame
pose: 
  position: 
    x: 3.35254854342
    y: 0.405707730221
    z: 0.0
  orientation: 
    x: 0.0
    y: 0.0
    z: 0.0601781805649
    w: 0.998187650987
---
header: 
  seq: 1283
  stamp: 
    secs: 0
    nsecs:         0
  frame_id: /robot_frame
pose: 
  position: 
    x: 3.61859738559
    y: 0.508969215438
    z: 0.0
  orientation: 
    x: 0.0
    y: 0.0
    z: 0.0698116916738
    w: 0.99756018751
---
header: 
  seq: 1284
  stamp: 
    secs: 0
    nsecs:         0
  frame_id: /robot_frame
pose: 
  position: 
    x: 3.61859738559
    y: 0.508969215438
    z: 0.0
  orientation: 
    x: 0.0
    y: 0.0
    z: 0.0698116916738
    w: 0.99756018751
---
header: 
  seq: 1285
  stamp: 
    secs: 0
    nsecs:         0
  frame_id: /robot_frame
pose: 
  position: 
    x: 3.61859738559
    y: 0.508969215438
    z: 0.0
  orientation: 
    x: 0.0
    y: 0.0
    z: 0.0698116916738
    w: 0.99756018751
---
header: 
  seq: 1286
  stamp: 
    secs: 0
    nsecs:         0
  frame_id: /robot_frame
pose: 
  position: 
    x: 3.61859738559
    y: 0.508969215438
    z: 0.0
  orientation: 
    x: 0.0
    y: 0.0
    z: 0.0698116916738
    w: 0.99756018751
---
header: 
  seq: 1287
  stamp: 
    secs: 0
    nsecs:         0
  frame_id: /robot_frame
pose: 
  position: 
    x: 3.61859738559
    y: 0.508969215438
    z: 0.0
  orientation: 
    x: 0.0
    y: 0.0
    z: 0.0698116916738
    w: 0.99756018751
---
header: 
  seq: 1288
  stamp: 
    secs: 0
    nsecs:         0
  frame_id: /robot_frame
pose: 
  position: 
    x: 3.61859738559
    y: 0.508969215438
    z: 0.0
  orientation: 
    x: 0.0
    y: 0.0
    z: 0.0698116916738
    w: 0.99756018751
---
header: 
  seq: 1289
  stamp: 
    secs: 0
    nsecs:         0
  frame_id: /robot_frame
pose: 
  position: 
    x: 3.61859738559
    y: 0.508969215438
    z: 0.0
  orientation: 
    x: 0.0
    y: 0.0
    z: 0.0698116916738
    w: 0.99756018751
---
header: 
  seq: 1290
  stamp: 
    secs: 0
    nsecs:         0
  frame_id: /robot_frame
pose: 
  position: 
    x: 4.07279100604
    y: 0.617561635318
    z: 0.0
  orientation: 
    x: 0.0
    y: 0.0
    z: 0.0751713925608
    w: 0.997170628198
---
header: 
  seq: 1291
  stamp: 
    secs: 0
    nsecs:         0
  frame_id: /robot_frame
pose: 
  position: 
    x: 4.07279100604
    y: 0.617561635318
    z: 0.0
  orientation: 
    x: 0.0
    y: 0.0
    z: 0.0751713925608
    w: 0.997170628198
---
header: 
  seq: 1292
  stamp: 
    secs: 0
    nsecs:         0
  frame_id: /robot_frame
pose: 
  position: 
    x: 4.07279100604
    y: 0.617561635318
    z: 0.0
  orientation: 
    x: 0.0
    y: 0.0
    z: 0.0751713925608
    w: 0.997170628198
---
header: 
  seq: 1293
  stamp: 
    secs: 0
    nsecs:         0
  frame_id: /robot_frame
pose: 
  position: 
    x: 4.07279100604
    y: 0.617561635318
    z: 0.0
  orientation: 
    x: 0.0
    y: 0.0
    z: 0.0751713925608
    w: 0.997170628198
---
header: 
  seq: 1294
  stamp: 
    secs: 0
    nsecs:         0
  frame_id: /robot_frame
pose: 
  position: 
    x: 4.07279100604
    y: 0.617561635318
    z: 0.0
  orientation: 
    x: 0.0
    y: 0.0
    z: 0.0751713925608
    w: 0.997170628198
---
header: 
  seq: 1295
  stamp: 
    secs: 0
    nsecs:         0
  frame_id: /robot_frame
pose: 
  position: 
    x: 4.07279100604
    y: 0.617561635318
    z: 0.0
  orientation: 
    x: 0.0
    y: 0.0
    z: 0.0751713925608
    w: 0.997170628198
---
header: 
  seq: 1296
  stamp: 
    secs: 0
    nsecs:         0
  frame_id: /robot_frame
pose: 
  position: 
    x: 4.07279100604
    y: 0.617561635318
    z: 0.0
  orientation: 
    x: 0.0
    y: 0.0
    z: 0.0751713925608
    w: 0.997170628198
---
header: 
  seq: 1297
  stamp: 
    secs: 0
    nsecs:         0
  frame_id: /robot_frame
pose: 
  position: 
    x: 4.09075408064
    y: 0.695982696436
    z: 0.0
  orientation: 
    x: 0.0
    y: 0.0
    z: 0.0841612764376
    w: 0.996452146141
---
header: 
  seq: 1298
  stamp: 
    secs: 0
    nsecs:         0
  frame_id: /robot_frame
pose: 
  position: 
    x: 4.09075408064
    y: 0.695982696436
    z: 0.0
  orientation: 
    x: 0.0
    y: 0.0
    z: 0.0841612764376
    w: 0.996452146141
---
header: 
  seq: 1299
  stamp: 
    secs: 0
    nsecs:         0
  frame_id: /robot_frame
pose: 
  position: 
    x: 4.09075408064
    y: 0.695982696436
    z: 0.0
  orientation: 
    x: 0.0
    y: 0.0
    z: 0.0841612764376
    w: 0.996452146141
---
header: 
  seq: 1300
  stamp: 
    secs: 0
    nsecs:         0
  frame_id: /robot_frame
pose: 
  position: 
    x: 4.09075408064
    y: 0.695982696436
    z: 0.0
  orientation: 
    x: 0.0
    y: 0.0
    z: 0.0841612764376
    w: 0.996452146141
---
header: 
  seq: 1301
  stamp: 
    secs: 0
    nsecs:         0
  frame_id: /robot_frame
pose: 
  position: 
    x: 4.09075408064
    y: 0.695982696436
    z: 0.0
  orientation: 
    x: 0.0
    y: 0.0
    z: 0.0841612764376
    w: 0.996452146141
---
header: 
  seq: 1302
  stamp: 
    secs: 0
    nsecs:         0
  frame_id: /robot_frame
pose: 
  position: 
    x: 4.09075408064
    y: 0.695982696436
    z: 0.0
  orientation: 
    x: 0.0
    y: 0.0
    z: 0.0841612764376
    w: 0.996452146141
---
header: 
  seq: 1303
  stamp: 
    secs: 0
    nsecs:         0
  frame_id: /robot_frame
pose: 
  position: 
    x: 4.09075408064
    y: 0.695982696436
    z: 0.0
  orientation: 
    x: 0.0
    y: 0.0
    z: 0.0841612764376
    w: 0.996452146141
---
header: 
  seq: 1304
  stamp: 
    secs: 0
    nsecs:         0
  frame_id: /robot_frame
pose: 
  position: 
    x: 3.68287122121
    y: 0.692380180704
    z: 0.0
  orientation: 
    x: 0.0
    y: 0.0
    z: 0.092781877057
    w: 0.995686458324
---
header: 
  seq: 1305
  stamp: 
    secs: 0
    nsecs:         0
  frame_id: /robot_frame
pose: 
  position: 
    x: 3.68287122121
    y: 0.692380180704
    z: 0.0
  orientation: 
    x: 0.0
    y: 0.0
    z: 0.092781877057
    w: 0.995686458324
---
header: 
  seq: 1306
  stamp: 
    secs: 0
    nsecs:         0
  frame_id: /robot_frame
pose: 
  position: 
    x: 3.68287122121
    y: 0.692380180704
    z: 0.0
  orientation: 
    x: 0.0
    y: 0.0
    z: 0.092781877057
    w: 0.995686458324
---
header: 
  seq: 1307
  stamp: 
    secs: 0
    nsecs:         0
  frame_id: /robot_frame
pose: 
  position: 
    x: 3.68287122121
    y: 0.692380180704
    z: 0.0
  orientation: 
    x: 0.0
    y: 0.0
    z: 0.092781877057
    w: 0.995686458324
---
header: 
  seq: 1308
  stamp: 
    secs: 0
    nsecs:         0
  frame_id: /robot_frame
pose: 
  position: 
    x: 3.68287122121
    y: 0.692380180704
    z: 0.0
  orientation: 
    x: 0.0
    y: 0.0
    z: 0.092781877057
    w: 0.995686458324
---
header: 
  seq: 1309
  stamp: 
    secs: 0
    nsecs:         0
  frame_id: /robot_frame
pose: 
  position: 
    x: 3.68287122121
    y: 0.692380180704
    z: 0.0
  orientation: 
    x: 0.0
    y: 0.0
    z: 0.092781877057
    w: 0.995686458324
---
header: 
  seq: 1310
  stamp: 
    secs: 0
    nsecs:         0
  frame_id: /robot_frame
pose: 
  position: 
    x: 3.68287122121
    y: 0.692380180704
    z: 0.0
  orientation: 
    x: 0.0
    y: 0.0
    z: 0.092781877057
    w: 0.995686458324
---
header: 
  seq: 1311
  stamp: 
    secs: 0
    nsecs:         0
  frame_id: /robot_frame
pose: 
  position: 
    x: 3.68287122121
    y: 0.692380180704
    z: 0.0
  orientation: 
    x: 0.0
    y: 0.0
    z: 0.092781877057
    w: 0.995686458324
---
header: 
  seq: 1312
  stamp: 
    secs: 0
    nsecs:         0
  frame_id: /robot_frame
pose: 
  position: 
    x: 3.68287122121
    y: 0.692380180704
    z: 0.0
  orientation: 
    x: 0.0
    y: 0.0
    z: 0.092781877057
    w: 0.995686458324
---
header: 
  seq: 1313
  stamp: 
    secs: 0
    nsecs:         0
  frame_id: /robot_frame
pose: 
  position: 
    x: 3.51030594468
    y: 0.687414301541
    z: 0.0
  orientation: 
    x: 0.0
    y: 0.0
    z: 0.0965395628157
    w: 0.995329147976
---
header: 
  seq: 1314
  stamp: 
    secs: 0
    nsecs:         0
  frame_id: /robot_frame
pose: 
  position: 
    x: 3.51030594468
    y: 0.687414301541
    z: 0.0
  orientation: 
    x: 0.0
    y: 0.0
    z: 0.0965395628157
    w: 0.995329147976
---
header: 
  seq: 1315
  stamp: 
    secs: 0
    nsecs:         0
  frame_id: /robot_frame
pose: 
  position: 
    x: 3.51030594468
    y: 0.687414301541
    z: 0.0
  orientation: 
    x: 0.0
    y: 0.0
    z: 0.0965395628157
    w: 0.995329147976
---
header: 
  seq: 1316
  stamp: 
    secs: 0
    nsecs:         0
  frame_id: /robot_frame
pose: 
  position: 
    x: 3.51030594468
    y: 0.687414301541
    z: 0.0
  orientation: 
    x: 0.0
    y: 0.0
    z: 0.0965395628157
    w: 0.995329147976
---
header: 
  seq: 1317
  stamp: 
    secs: 0
    nsecs:         0
  frame_id: /robot_frame
pose: 
  position: 
    x: 3.51030594468
    y: 0.687414301541
    z: 0.0
  orientation: 
    x: 0.0
    y: 0.0
    z: 0.0965395628157
    w: 0.995329147976
---
header: 
  seq: 1318
  stamp: 
    secs: 0
    nsecs:         0
  frame_id: /robot_frame
pose: 
  position: 
    x: 3.51030594468
    y: 0.687414301541
    z: 0.0
  orientation: 
    x: 0.0
    y: 0.0
    z: 0.0965395628157
    w: 0.995329147976
---
header: 
  seq: 1319
  stamp: 
    secs: 0
    nsecs:         0
  frame_id: /robot_frame
pose: 
  position: 
    x: 3.51030594468
    y: 0.687414301541
    z: 0.0
  orientation: 
    x: 0.0
    y: 0.0
    z: 0.0965395628157
    w: 0.995329147976
---
header: 
  seq: 1320
  stamp: 
    secs: 0
    nsecs:         0
  frame_id: /robot_frame
pose: 
  position: 
    x: 3.47946453643
    y: 0.700326764228
    z: 0.0
  orientation: 
    x: 0.0
    y: 0.0
    z: 0.0991471090693
    w: 0.995072786666
---
header: 
  seq: 1321
  stamp: 
    secs: 0
    nsecs:         0
  frame_id: /robot_frame
pose: 
  position: 
    x: 3.47946453643
    y: 0.700326764228
    z: 0.0
  orientation: 
    x: 0.0
    y: 0.0
    z: 0.0991471090693
    w: 0.995072786666
---
header: 
  seq: 1322
  stamp: 
    secs: 0
    nsecs:         0
  frame_id: /robot_frame
pose: 
  position: 
    x: 3.47946453643
    y: 0.700326764228
    z: 0.0
  orientation: 
    x: 0.0
    y: 0.0
    z: 0.0991471090693
    w: 0.995072786666
---
header: 
  seq: 1323
  stamp: 
    secs: 0
    nsecs:         0
  frame_id: /robot_frame
pose: 
  position: 
    x: 3.47946453643
    y: 0.700326764228
    z: 0.0
  orientation: 
    x: 0.0
    y: 0.0
    z: 0.0991471090693
    w: 0.995072786666
---
header: 
  seq: 1324
  stamp: 
    secs: 0
    nsecs:         0
  frame_id: /robot_frame
pose: 
  position: 
    x: 3.47946453643
    y: 0.700326764228
    z: 0.0
  orientation: 
    x: 0.0
    y: 0.0
    z: 0.0991471090693
    w: 0.995072786666
---
header: 
  seq: 1325
  stamp: 
    secs: 0
    nsecs:         0
  frame_id: /robot_frame
pose: 
  position: 
    x: 3.47946453643
    y: 0.700326764228
    z: 0.0
  orientation: 
    x: 0.0
    y: 0.0
    z: 0.0991471090693
    w: 0.995072786666
---
header: 
  seq: 1326
  stamp: 
    secs: 0
    nsecs:         0
  frame_id: /robot_frame
pose: 
  position: 
    x: 3.47946453643
    y: 0.700326764228
    z: 0.0
  orientation: 
    x: 0.0
    y: 0.0
    z: 0.0991471090693
    w: 0.995072786666
---
header: 
  seq: 1327
  stamp: 
    secs: 0
    nsecs:         0
  frame_id: /robot_frame
pose: 
  position: 
    x: 3.47946453643
    y: 0.700326764228
    z: 0.0
  orientation: 
    x: 0.0
    y: 0.0
    z: 0.0991471090693
    w: 0.995072786666
---
header: 
  seq: 1328
  stamp: 
    secs: 0
    nsecs:         0
  frame_id: /robot_frame
pose: 
  position: 
    x: 3.53644019996
    y: 0.798052421504
    z: 0.0
  orientation: 
    x: 0.0
    y: 0.0
    z: 0.110746238115
    w: 0.993848716226
---
header: 
  seq: 1329
  stamp: 
    secs: 0
    nsecs:         0
  frame_id: /robot_frame
pose: 
  position: 
    x: 3.53644019996
    y: 0.798052421504
    z: 0.0
  orientation: 
    x: 0.0
    y: 0.0
    z: 0.110746238115
    w: 0.993848716226
---
header: 
  seq: 1330
  stamp: 
    secs: 0
    nsecs:         0
  frame_id: /robot_frame
pose: 
  position: 
    x: 3.53644019996
    y: 0.798052421504
    z: 0.0
  orientation: 
    x: 0.0
    y: 0.0
    z: 0.110746238115
    w: 0.993848716226
---
header: 
  seq: 1331
  stamp: 
    secs: 0
    nsecs:         0
  frame_id: /robot_frame
pose: 
  position: 
    x: 3.53644019996
    y: 0.798052421504
    z: 0.0
  orientation: 
    x: 0.0
    y: 0.0
    z: 0.110746238115
    w: 0.993848716226
---
header: 
  seq: 1332
  stamp: 
    secs: 0
    nsecs:         0
  frame_id: /robot_frame
pose: 
  position: 
    x: 3.53644019996
    y: 0.798052421504
    z: 0.0
  orientation: 
    x: 0.0
    y: 0.0
    z: 0.110746238115
    w: 0.993848716226
---
header: 
  seq: 1333
  stamp: 
    secs: 0
    nsecs:         0
  frame_id: /robot_frame
pose: 
  position: 
    x: 3.53644019996
    y: 0.798052421504
    z: 0.0
  orientation: 
    x: 0.0
    y: 0.0
    z: 0.110746238115
    w: 0.993848716226
---
header: 
  seq: 1334
  stamp: 
    secs: 0
    nsecs:         0
  frame_id: /robot_frame
pose: 
  position: 
    x: 3.53644019996
    y: 0.798052421504
    z: 0.0
  orientation: 
    x: 0.0
    y: 0.0
    z: 0.110746238115
    w: 0.993848716226
---
header: 
  seq: 1335
  stamp: 
    secs: 0
    nsecs:         0
  frame_id: /robot_frame
pose: 
  position: 
    x: 4.0300503783
    y: 0.991394503337
    z: 0.0
  orientation: 
    x: 0.0
    y: 0.0
    z: 0.120313292341
    w: 0.992735972797
---
header: 
  seq: 1336
  stamp: 
    secs: 0
    nsecs:         0
  frame_id: /robot_frame
pose: 
  position: 
    x: 4.0300503783
    y: 0.991394503337
    z: 0.0
  orientation: 
    x: 0.0
    y: 0.0
    z: 0.120313292341
    w: 0.992735972797
---
header: 
  seq: 1337
  stamp: 
    secs: 0
    nsecs:         0
  frame_id: /robot_frame
pose: 
  position: 
    x: 4.0300503783
    y: 0.991394503337
    z: 0.0
  orientation: 
    x: 0.0
    y: 0.0
    z: 0.120313292341
    w: 0.992735972797
---
header: 
  seq: 1338
  stamp: 
    secs: 0
    nsecs:         0
  frame_id: /robot_frame
pose: 
  position: 
    x: 4.0300503783
    y: 0.991394503337
    z: 0.0
  orientation: 
    x: 0.0
    y: 0.0
    z: 0.120313292341
    w: 0.992735972797
---
header: 
  seq: 1339
  stamp: 
    secs: 0
    nsecs:         0
  frame_id: /robot_frame
pose: 
  position: 
    x: 4.0300503783
    y: 0.991394503337
    z: 0.0
  orientation: 
    x: 0.0
    y: 0.0
    z: 0.120313292341
    w: 0.992735972797
---
header: 
  seq: 1340
  stamp: 
    secs: 0
    nsecs:         0
  frame_id: /robot_frame
pose: 
  position: 
    x: 4.0300503783
    y: 0.991394503337
    z: 0.0
  orientation: 
    x: 0.0
    y: 0.0
    z: 0.120313292341
    w: 0.992735972797
---
header: 
  seq: 1341
  stamp: 
    secs: 0
    nsecs:         0
  frame_id: /robot_frame
pose: 
  position: 
    x: 4.0300503783
    y: 0.991394503337
    z: 0.0
  orientation: 
    x: 0.0
    y: 0.0
    z: 0.120313292341
    w: 0.992735972797
---
header: 
  seq: 1342
  stamp: 
    secs: 0
    nsecs:         0
  frame_id: /robot_frame
pose: 
  position: 
    x: 4.09162849907
    y: 0.948615167639
    z: 0.0
  orientation: 
    x: 0.0
    y: 0.0
    z: 0.113662839271
    w: 0.993519380268
---
header: 
  seq: 1343
  stamp: 
    secs: 0
    nsecs:         0
  frame_id: /robot_frame
pose: 
  position: 
    x: 4.09162849907
    y: 0.948615167639
    z: 0.0
  orientation: 
    x: 0.0
    y: 0.0
    z: 0.113662839271
    w: 0.993519380268
---
header: 
  seq: 1344
  stamp: 
    secs: 0
    nsecs:         0
  frame_id: /robot_frame
pose: 
  position: 
    x: 4.09162849907
    y: 0.948615167639
    z: 0.0
  orientation: 
    x: 0.0
    y: 0.0
    z: 0.113662839271
    w: 0.993519380268
---
header: 
  seq: 1345
  stamp: 
    secs: 0
    nsecs:         0
  frame_id: /robot_frame
pose: 
  position: 
    x: 4.09162849907
    y: 0.948615167639
    z: 0.0
  orientation: 
    x: 0.0
    y: 0.0
    z: 0.113662839271
    w: 0.993519380268
---
header: 
  seq: 1346
  stamp: 
    secs: 0
    nsecs:         0
  frame_id: /robot_frame
pose: 
  position: 
    x: 4.09162849907
    y: 0.948615167639
    z: 0.0
  orientation: 
    x: 0.0
    y: 0.0
    z: 0.113662839271
    w: 0.993519380268
---
header: 
  seq: 1347
  stamp: 
    secs: 0
    nsecs:         0
  frame_id: /robot_frame
pose: 
  position: 
    x: 4.09162849907
    y: 0.948615167639
    z: 0.0
  orientation: 
    x: 0.0
    y: 0.0
    z: 0.113662839271
    w: 0.993519380268
---
header: 
  seq: 1348
  stamp: 
    secs: 0
    nsecs:         0
  frame_id: /robot_frame
pose: 
  position: 
    x: 4.09162849907
    y: 0.948615167639
    z: 0.0
  orientation: 
    x: 0.0
    y: 0.0
    z: 0.113662839271
    w: 0.993519380268
---
header: 
  seq: 1349
  stamp: 
    secs: 0
    nsecs:         0
  frame_id: /robot_frame
pose: 
  position: 
    x: 4.09162849907
    y: 0.948615167639
    z: 0.0
  orientation: 
    x: 0.0
    y: 0.0
    z: 0.113662839271
    w: 0.993519380268
---
header: 
  seq: 1350
  stamp: 
    secs: 0
    nsecs:         0
  frame_id: /robot_frame
pose: 
  position: 
    x: 3.84880087989
    y: 0.793814236308
    z: 0.0
  orientation: 
    x: 0.0
    y: 0.0
    z: 0.101523611302
    w: 0.994833129901
---
header: 
  seq: 1351
  stamp: 
    secs: 0
    nsecs:         0
  frame_id: /robot_frame
pose: 
  position: 
    x: 3.84880087989
    y: 0.793814236308
    z: 0.0
  orientation: 
    x: 0.0
    y: 0.0
    z: 0.101523611302
    w: 0.994833129901
---
header: 
  seq: 1352
  stamp: 
    secs: 0
    nsecs:         0
  frame_id: /robot_frame
pose: 
  position: 
    x: 3.84880087989
    y: 0.793814236308
    z: 0.0
  orientation: 
    x: 0.0
    y: 0.0
    z: 0.101523611302
    w: 0.994833129901
---
header: 
  seq: 1353
  stamp: 
    secs: 0
    nsecs:         0
  frame_id: /robot_frame
pose: 
  position: 
    x: 3.84880087989
    y: 0.793814236308
    z: 0.0
  orientation: 
    x: 0.0
    y: 0.0
    z: 0.101523611302
    w: 0.994833129901
---
header: 
  seq: 1354
  stamp: 
    secs: 0
    nsecs:         0
  frame_id: /robot_frame
pose: 
  position: 
    x: 3.84880087989
    y: 0.793814236308
    z: 0.0
  orientation: 
    x: 0.0
    y: 0.0
    z: 0.101523611302
    w: 0.994833129901
---
header: 
  seq: 1355
  stamp: 
    secs: 0
    nsecs:         0
  frame_id: /robot_frame
pose: 
  position: 
    x: 3.84880087989
    y: 0.793814236308
    z: 0.0
  orientation: 
    x: 0.0
    y: 0.0
    z: 0.101523611302
    w: 0.994833129901
---
header: 
  seq: 1356
  stamp: 
    secs: 0
    nsecs:         0
  frame_id: /robot_frame
pose: 
  position: 
    x: 3.84880087989
    y: 0.793814236308
    z: 0.0
  orientation: 
    x: 0.0
    y: 0.0
    z: 0.101523611302
    w: 0.994833129901
---
header: 
  seq: 1357
  stamp: 
    secs: 0
    nsecs:         0
  frame_id: /robot_frame
pose: 
  position: 
    x: 3.82259026141
    y: 0.741258977155
    z: 0.0
  orientation: 
    x: 0.0
    y: 0.0
    z: 0.0956227527095
    w: 0.995417645596
---
header: 
  seq: 1358
  stamp: 
    secs: 0
    nsecs:         0
  frame_id: /robot_frame
pose: 
  position: 
    x: 3.82259026141
    y: 0.741258977155
    z: 0.0
  orientation: 
    x: 0.0
    y: 0.0
    z: 0.0956227527095
    w: 0.995417645596
---
header: 
  seq: 1359
  stamp: 
    secs: 0
    nsecs:         0
  frame_id: /robot_frame
pose: 
  position: 
    x: 3.82259026141
    y: 0.741258977155
    z: 0.0
  orientation: 
    x: 0.0
    y: 0.0
    z: 0.0956227527095
    w: 0.995417645596
---
header: 
  seq: 1360
  stamp: 
    secs: 0
    nsecs:         0
  frame_id: /robot_frame
pose: 
  position: 
    x: 3.82259026141
    y: 0.741258977155
    z: 0.0
  orientation: 
    x: 0.0
    y: 0.0
    z: 0.0956227527095
    w: 0.995417645596
---
header: 
  seq: 1361
  stamp: 
    secs: 0
    nsecs:         0
  frame_id: /robot_frame
pose: 
  position: 
    x: 3.82259026141
    y: 0.741258977155
    z: 0.0
  orientation: 
    x: 0.0
    y: 0.0
    z: 0.0956227527095
    w: 0.995417645596
---
header: 
  seq: 1362
  stamp: 
    secs: 0
    nsecs:         0
  frame_id: /robot_frame
pose: 
  position: 
    x: 3.82259026141
    y: 0.741258977155
    z: 0.0
  orientation: 
    x: 0.0
    y: 0.0
    z: 0.0956227527095
    w: 0.995417645596
---
header: 
  seq: 1363
  stamp: 
    secs: 0
    nsecs:         0
  frame_id: /robot_frame
pose: 
  position: 
    x: 3.57994030883
    y: 0.607293844183
    z: 0.0
  orientation: 
    x: 0.0
    y: 0.0
    z: 0.0839203258732
    w: 0.996472467711
---
header: 
  seq: 1364
  stamp: 
    secs: 0
    nsecs:         0
  frame_id: /robot_frame
pose: 
  position: 
    x: 3.57994030883
    y: 0.607293844183
    z: 0.0
  orientation: 
    x: 0.0
    y: 0.0
    z: 0.0839203258732
    w: 0.996472467711
---
header: 
  seq: 1365
  stamp: 
    secs: 0
    nsecs:         0
  frame_id: /robot_frame
pose: 
  position: 
    x: 3.57994030883
    y: 0.607293844183
    z: 0.0
  orientation: 
    x: 0.0
    y: 0.0
    z: 0.0839203258732
    w: 0.996472467711
---
header: 
  seq: 1366
  stamp: 
    secs: 0
    nsecs:         0
  frame_id: /robot_frame
pose: 
  position: 
    x: 3.57994030883
    y: 0.607293844183
    z: 0.0
  orientation: 
    x: 0.0
    y: 0.0
    z: 0.0839203258732
    w: 0.996472467711
---
header: 
  seq: 1367
  stamp: 
    secs: 0
    nsecs:         0
  frame_id: /robot_frame
pose: 
  position: 
    x: 3.57994030883
    y: 0.607293844183
    z: 0.0
  orientation: 
    x: 0.0
    y: 0.0
    z: 0.0839203258732
    w: 0.996472467711
---
header: 
  seq: 1368
  stamp: 
    secs: 0
    nsecs:         0
  frame_id: /robot_frame
pose: 
  position: 
    x: 3.57994030883
    y: 0.607293844183
    z: 0.0
  orientation: 
    x: 0.0
    y: 0.0
    z: 0.0839203258732
    w: 0.996472467711
---
header: 
  seq: 1369
  stamp: 
    secs: 0
    nsecs:         0
  frame_id: /robot_frame
pose: 
  position: 
    x: 3.57994030883
    y: 0.607293844183
    z: 0.0
  orientation: 
    x: 0.0
    y: 0.0
    z: 0.0839203258732
    w: 0.996472467711
---
header: 
  seq: 1370
  stamp: 
    secs: 0
    nsecs:         0
  frame_id: /robot_frame
pose: 
  position: 
    x: 3.48882216462
    y: 0.524107450684
    z: 0.0
  orientation: 
    x: 0.0
    y: 0.0
    z: 0.074485825425
    w: 0.997222072465
---
header: 
  seq: 1371
  stamp: 
    secs: 0
    nsecs:         0
  frame_id: /robot_frame
pose: 
  position: 
    x: 3.48882216462
    y: 0.524107450684
    z: 0.0
  orientation: 
    x: 0.0
    y: 0.0
    z: 0.074485825425
    w: 0.997222072465
---
header: 
  seq: 1372
  stamp: 
    secs: 0
    nsecs:         0
  frame_id: /robot_frame
pose: 
  position: 
    x: 3.48882216462
    y: 0.524107450684
    z: 0.0
  orientation: 
    x: 0.0
    y: 0.0
    z: 0.074485825425
    w: 0.997222072465
---
header: 
  seq: 1373
  stamp: 
    secs: 0
    nsecs:         0
  frame_id: /robot_frame
pose: 
  position: 
    x: 3.48882216462
    y: 0.524107450684
    z: 0.0
  orientation: 
    x: 0.0
    y: 0.0
    z: 0.074485825425
    w: 0.997222072465
---
header: 
  seq: 1374
  stamp: 
    secs: 0
    nsecs:         0
  frame_id: /robot_frame
pose: 
  position: 
    x: 3.48882216462
    y: 0.524107450684
    z: 0.0
  orientation: 
    x: 0.0
    y: 0.0
    z: 0.074485825425
    w: 0.997222072465
---
header: 
  seq: 1375
  stamp: 
    secs: 0
    nsecs:         0
  frame_id: /robot_frame
pose: 
  position: 
    x: 3.48882216462
    y: 0.524107450684
    z: 0.0
  orientation: 
    x: 0.0
    y: 0.0
    z: 0.074485825425
    w: 0.997222072465
---
header: 
  seq: 1376
  stamp: 
    secs: 0
    nsecs:         0
  frame_id: /robot_frame
pose: 
  position: 
    x: 3.44178140609
    y: 0.576258719105
    z: 0.0
  orientation: 
    x: 0.0
    y: 0.0
    z: 0.0828507432142
    w: 0.996561967139
---
header: 
  seq: 1377
  stamp: 
    secs: 0
    nsecs:         0
  frame_id: /robot_frame
pose: 
  position: 
    x: 3.44178140609
    y: 0.576258719105
    z: 0.0
  orientation: 
    x: 0.0
    y: 0.0
    z: 0.0828507432142
    w: 0.996561967139
---
header: 
  seq: 1378
  stamp: 
    secs: 0
    nsecs:         0
  frame_id: /robot_frame
pose: 
  position: 
    x: 3.44178140609
    y: 0.576258719105
    z: 0.0
  orientation: 
    x: 0.0
    y: 0.0
    z: 0.0828507432142
    w: 0.996561967139
---
header: 
  seq: 1379
  stamp: 
    secs: 0
    nsecs:         0
  frame_id: /robot_frame
pose: 
  position: 
    x: 3.44178140609
    y: 0.576258719105
    z: 0.0
  orientation: 
    x: 0.0
    y: 0.0
    z: 0.0828507432142
    w: 0.996561967139
---
header: 
  seq: 1380
  stamp: 
    secs: 0
    nsecs:         0
  frame_id: /robot_frame
pose: 
  position: 
    x: 3.44178140609
    y: 0.576258719105
    z: 0.0
  orientation: 
    x: 0.0
    y: 0.0
    z: 0.0828507432142
    w: 0.996561967139
---
header: 
  seq: 1381
  stamp: 
    secs: 0
    nsecs:         0
  frame_id: /robot_frame
pose: 
  position: 
    x: 3.44178140609
    y: 0.576258719105
    z: 0.0
  orientation: 
    x: 0.0
    y: 0.0
    z: 0.0828507432142
    w: 0.996561967139
---
header: 
  seq: 1382
  stamp: 
    secs: 0
    nsecs:         0
  frame_id: /robot_frame
pose: 
  position: 
    x: 3.44178140609
    y: 0.576258719105
    z: 0.0
  orientation: 
    x: 0.0
    y: 0.0
    z: 0.0828507432142
    w: 0.996561967139
---
header: 
  seq: 1383
  stamp: 
    secs: 0
    nsecs:         0
  frame_id: /robot_frame
pose: 
  position: 
    x: 3.83325176779
    y: 0.750761710396
    z: 0.0
  orientation: 
    x: 0.0
    y: 0.0
    z: 0.0965527847999
    w: 0.995327865453
---
header: 
  seq: 1384
  stamp: 
    secs: 0
    nsecs:         0
  frame_id: /robot_frame
pose: 
  position: 
    x: 3.83325176779
    y: 0.750761710396
    z: 0.0
  orientation: 
    x: 0.0
    y: 0.0
    z: 0.0965527847999
    w: 0.995327865453
---
header: 
  seq: 1385
  stamp: 
    secs: 0
    nsecs:         0
  frame_id: /robot_frame
pose: 
  position: 
    x: 3.83325176779
    y: 0.750761710396
    z: 0.0
  orientation: 
    x: 0.0
    y: 0.0
    z: 0.0965527847999
    w: 0.995327865453
---
header: 
  seq: 1386
  stamp: 
    secs: 0
    nsecs:         0
  frame_id: /robot_frame
pose: 
  position: 
    x: 3.83325176779
    y: 0.750761710396
    z: 0.0
  orientation: 
    x: 0.0
    y: 0.0
    z: 0.0965527847999
    w: 0.995327865453
---
header: 
  seq: 1387
  stamp: 
    secs: 0
    nsecs:         0
  frame_id: /robot_frame
pose: 
  position: 
    x: 3.83325176779
    y: 0.750761710396
    z: 0.0
  orientation: 
    x: 0.0
    y: 0.0
    z: 0.0965527847999
    w: 0.995327865453
---
header: 
  seq: 1388
  stamp: 
    secs: 0
    nsecs:         0
  frame_id: /robot_frame
pose: 
  position: 
    x: 3.83325176779
    y: 0.750761710396
    z: 0.0
  orientation: 
    x: 0.0
    y: 0.0
    z: 0.0965527847999
    w: 0.995327865453
---
header: 
  seq: 1389
  stamp: 
    secs: 0
    nsecs:         0
  frame_id: /robot_frame
pose: 
  position: 
    x: 3.83325176779
    y: 0.750761710396
    z: 0.0
  orientation: 
    x: 0.0
    y: 0.0
    z: 0.0965527847999
    w: 0.995327865453
---
header: 
  seq: 1390
  stamp: 
    secs: 0
    nsecs:         0
  frame_id: /robot_frame
pose: 
  position: 
    x: 3.72552600498
    y: 0.825777579796
    z: 0.0
  orientation: 
    x: 0.0
    y: 0.0
    z: 0.108847590456
    w: 0.994058450018
---
header: 
  seq: 1391
  stamp: 
    secs: 0
    nsecs:         0
  frame_id: /robot_frame
pose: 
  position: 
    x: 3.72552600498
    y: 0.825777579796
    z: 0.0
  orientation: 
    x: 0.0
    y: 0.0
    z: 0.108847590456
    w: 0.994058450018
---
header: 
  seq: 1392
  stamp: 
    secs: 0
    nsecs:         0
  frame_id: /robot_frame
pose: 
  position: 
    x: 3.72552600498
    y: 0.825777579796
    z: 0.0
  orientation: 
    x: 0.0
    y: 0.0
    z: 0.108847590456
    w: 0.994058450018
---
header: 
  seq: 1393
  stamp: 
    secs: 0
    nsecs:         0
  frame_id: /robot_frame
pose: 
  position: 
    x: 3.72552600498
    y: 0.825777579796
    z: 0.0
  orientation: 
    x: 0.0
    y: 0.0
    z: 0.108847590456
    w: 0.994058450018
---
header: 
  seq: 1394
  stamp: 
    secs: 0
    nsecs:         0
  frame_id: /robot_frame
pose: 
  position: 
    x: 3.72552600498
    y: 0.825777579796
    z: 0.0
  orientation: 
    x: 0.0
    y: 0.0
    z: 0.108847590456
    w: 0.994058450018
---
header: 
  seq: 1395
  stamp: 
    secs: 0
    nsecs:         0
  frame_id: /robot_frame
pose: 
  position: 
    x: 3.72552600498
    y: 0.825777579796
    z: 0.0
  orientation: 
    x: 0.0
    y: 0.0
    z: 0.108847590456
    w: 0.994058450018
---
header: 
  seq: 1396
  stamp: 
    secs: 0
    nsecs:         0
  frame_id: /robot_frame
pose: 
  position: 
    x: 3.72552600498
    y: 0.825777579796
    z: 0.0
  orientation: 
    x: 0.0
    y: 0.0
    z: 0.108847590456
    w: 0.994058450018
---
header: 
  seq: 1397
  stamp: 
    secs: 0
    nsecs:         0
  frame_id: /robot_frame
pose: 
  position: 
    x: 3.51135733554
    y: 0.856050810134
    z: 0.0
  orientation: 
    x: 0.0
    y: 0.0
    z: 0.119280345416
    w: 0.992860614184
---
header: 
  seq: 1398
  stamp: 
    secs: 0
    nsecs:         0
  frame_id: /robot_frame
pose: 
  position: 
    x: 3.51135733554
    y: 0.856050810134
    z: 0.0
  orientation: 
    x: 0.0
    y: 0.0
    z: 0.119280345416
    w: 0.992860614184
---
header: 
  seq: 1399
  stamp: 
    secs: 0
    nsecs:         0
  frame_id: /robot_frame
pose: 
  position: 
    x: 3.51135733554
    y: 0.856050810134
    z: 0.0
  orientation: 
    x: 0.0
    y: 0.0
    z: 0.119280345416
    w: 0.992860614184
---
header: 
  seq: 1400
  stamp: 
    secs: 0
    nsecs:         0
  frame_id: /robot_frame
pose: 
  position: 
    x: 3.51135733554
    y: 0.856050810134
    z: 0.0
  orientation: 
    x: 0.0
    y: 0.0
    z: 0.119280345416
    w: 0.992860614184
---
header: 
  seq: 1401
  stamp: 
    secs: 0
    nsecs:         0
  frame_id: /robot_frame
pose: 
  position: 
    x: 3.51135733554
    y: 0.856050810134
    z: 0.0
  orientation: 
    x: 0.0
    y: 0.0
    z: 0.119280345416
    w: 0.992860614184
---
header: 
  seq: 1402
  stamp: 
    secs: 0
    nsecs:         0
  frame_id: /robot_frame
pose: 
  position: 
    x: 3.51135733554
    y: 0.856050810134
    z: 0.0
  orientation: 
    x: 0.0
    y: 0.0
    z: 0.119280345416
    w: 0.992860614184
---
header: 
  seq: 1403
  stamp: 
    secs: 0
    nsecs:         0
  frame_id: /robot_frame
pose: 
  position: 
    x: 3.51135733554
    y: 0.856050810134
    z: 0.0
  orientation: 
    x: 0.0
    y: 0.0
    z: 0.119280345416
    w: 0.992860614184
---
header: 
  seq: 1404
  stamp: 
    secs: 0
    nsecs:         0
  frame_id: /robot_frame
pose: 
  position: 
    x: 3.51135733554
    y: 0.856050810134
    z: 0.0
  orientation: 
    x: 0.0
    y: 0.0
    z: 0.119280345416
    w: 0.992860614184
---
header: 
  seq: 1405
  stamp: 
    secs: 0
    nsecs:         0
  frame_id: /robot_frame
pose: 
  position: 
    x: 3.76158495808
    y: 0.875041588233
    z: 0.0
  orientation: 
    x: 0.0
    y: 0.0
    z: 0.114031810124
    w: 0.993477099021
---
header: 
  seq: 1406
  stamp: 
    secs: 0
    nsecs:         0
  frame_id: /robot_frame
pose: 
  position: 
    x: 3.76158495808
    y: 0.875041588233
    z: 0.0
  orientation: 
    x: 0.0
    y: 0.0
    z: 0.114031810124
    w: 0.993477099021
---
header: 
  seq: 1407
  stamp: 
    secs: 0
    nsecs:         0
  frame_id: /robot_frame
pose: 
  position: 
    x: 3.76158495808
    y: 0.875041588233
    z: 0.0
  orientation: 
    x: 0.0
    y: 0.0
    z: 0.114031810124
    w: 0.993477099021
---
header: 
  seq: 1408
  stamp: 
    secs: 0
    nsecs:         0
  frame_id: /robot_frame
pose: 
  position: 
    x: 3.76158495808
    y: 0.875041588233
    z: 0.0
  orientation: 
    x: 0.0
    y: 0.0
    z: 0.114031810124
    w: 0.993477099021
---
header: 
  seq: 1409
  stamp: 
    secs: 0
    nsecs:         0
  frame_id: /robot_frame
pose: 
  position: 
    x: 3.76158495808
    y: 0.875041588233
    z: 0.0
  orientation: 
    x: 0.0
    y: 0.0
    z: 0.114031810124
    w: 0.993477099021
---
header: 
  seq: 1410
  stamp: 
    secs: 0
    nsecs:         0
  frame_id: /robot_frame
pose: 
  position: 
    x: 3.76158495808
    y: 0.875041588233
    z: 0.0
  orientation: 
    x: 0.0
    y: 0.0
    z: 0.114031810124
    w: 0.993477099021
---
header: 
  seq: 1411
  stamp: 
    secs: 0
    nsecs:         0
  frame_id: /robot_frame
pose: 
  position: 
    x: 3.78397187914
    y: 0.820703897156
    z: 0.0
  orientation: 
    x: 0.0
    y: 0.0
    z: 0.106587890525
    w: 0.994303284513
---
header: 
  seq: 1412
  stamp: 
    secs: 0
    nsecs:         0
  frame_id: /robot_frame
pose: 
  position: 
    x: 3.78397187914
    y: 0.820703897156
    z: 0.0
  orientation: 
    x: 0.0
    y: 0.0
    z: 0.106587890525
    w: 0.994303284513
---
header: 
  seq: 1413
  stamp: 
    secs: 0
    nsecs:         0
  frame_id: /robot_frame
pose: 
  position: 
    x: 3.78397187914
    y: 0.820703897156
    z: 0.0
  orientation: 
    x: 0.0
    y: 0.0
    z: 0.106587890525
    w: 0.994303284513
---
header: 
  seq: 1414
  stamp: 
    secs: 0
    nsecs:         0
  frame_id: /robot_frame
pose: 
  position: 
    x: 3.78397187914
    y: 0.820703897156
    z: 0.0
  orientation: 
    x: 0.0
    y: 0.0
    z: 0.106587890525
    w: 0.994303284513
---
header: 
  seq: 1415
  stamp: 
    secs: 0
    nsecs:         0
  frame_id: /robot_frame
pose: 
  position: 
    x: 3.78397187914
    y: 0.820703897156
    z: 0.0
  orientation: 
    x: 0.0
    y: 0.0
    z: 0.106587890525
    w: 0.994303284513
---
header: 
  seq: 1416
  stamp: 
    secs: 0
    nsecs:         0
  frame_id: /robot_frame
pose: 
  position: 
    x: 3.72061840203
    y: 0.861687238177
    z: 0.0
  orientation: 
    x: 0.0
    y: 0.0
    z: 0.113547295342
    w: 0.993532592178
---
header: 
  seq: 1417
  stamp: 
    secs: 0
    nsecs:         0
  frame_id: /robot_frame
pose: 
  position: 
    x: 3.72061840203
    y: 0.861687238177
    z: 0.0
  orientation: 
    x: 0.0
    y: 0.0
    z: 0.113547295342
    w: 0.993532592178
---
header: 
  seq: 1418
  stamp: 
    secs: 0
    nsecs:         0
  frame_id: /robot_frame
pose: 
  position: 
    x: 3.72061840203
    y: 0.861687238177
    z: 0.0
  orientation: 
    x: 0.0
    y: 0.0
    z: 0.113547295342
    w: 0.993532592178
---
header: 
  seq: 1419
  stamp: 
    secs: 0
    nsecs:         0
  frame_id: /robot_frame
pose: 
  position: 
    x: 3.72061840203
    y: 0.861687238177
    z: 0.0
  orientation: 
    x: 0.0
    y: 0.0
    z: 0.113547295342
    w: 0.993532592178
---
header: 
  seq: 1420
  stamp: 
    secs: 0
    nsecs:         0
  frame_id: /robot_frame
pose: 
  position: 
    x: 3.72061840203
    y: 0.861687238177
    z: 0.0
  orientation: 
    x: 0.0
    y: 0.0
    z: 0.113547295342
    w: 0.993532592178
---
header: 
  seq: 1421
  stamp: 
    secs: 0
    nsecs:         0
  frame_id: /robot_frame
pose: 
  position: 
    x: 3.50215819142
    y: 0.773546884523
    z: 0.0
  orientation: 
    x: 0.0
    y: 0.0
    z: 0.108479530017
    w: 0.994098683013
---
header: 
  seq: 1422
  stamp: 
    secs: 0
    nsecs:         0
  frame_id: /robot_frame
pose: 
  position: 
    x: 3.50215819142
    y: 0.773546884523
    z: 0.0
  orientation: 
    x: 0.0
    y: 0.0
    z: 0.108479530017
    w: 0.994098683013
---
header: 
  seq: 1423
  stamp: 
    secs: 0
    nsecs:         0
  frame_id: /robot_frame
pose: 
  position: 
    x: 3.50215819142
    y: 0.773546884523
    z: 0.0
  orientation: 
    x: 0.0
    y: 0.0
    z: 0.108479530017
    w: 0.994098683013
---
header: 
  seq: 1424
  stamp: 
    secs: 0
    nsecs:         0
  frame_id: /robot_frame
pose: 
  position: 
    x: 3.50215819142
    y: 0.773546884523
    z: 0.0
  orientation: 
    x: 0.0
    y: 0.0
    z: 0.108479530017
    w: 0.994098683013
---
header: 
  seq: 1425
  stamp: 
    secs: 0
    nsecs:         0
  frame_id: /robot_frame
pose: 
  position: 
    x: 3.50215819142
    y: 0.773546884523
    z: 0.0
  orientation: 
    x: 0.0
    y: 0.0
    z: 0.108479530017
    w: 0.994098683013
---
header: 
  seq: 1426
  stamp: 
    secs: 0
    nsecs:         0
  frame_id: /robot_frame
pose: 
  position: 
    x: 3.50215819142
    y: 0.773546884523
    z: 0.0
  orientation: 
    x: 0.0
    y: 0.0
    z: 0.108479530017
    w: 0.994098683013
---
header: 
  seq: 1427
  stamp: 
    secs: 0
    nsecs:         0
  frame_id: /robot_frame
pose: 
  position: 
    x: 3.73010293159
    y: 0.689963280177
    z: 0.0
  orientation: 
    x: 0.0
    y: 0.0
    z: 0.0913247519306
    w: 0.995821163505
---
header: 
  seq: 1428
  stamp: 
    secs: 0
    nsecs:         0
  frame_id: /robot_frame
pose: 
  position: 
    x: 3.73010293159
    y: 0.689963280177
    z: 0.0
  orientation: 
    x: 0.0
    y: 0.0
    z: 0.0913247519306
    w: 0.995821163505
---
header: 
  seq: 1429
  stamp: 
    secs: 0
    nsecs:         0
  frame_id: /robot_frame
pose: 
  position: 
    x: 3.73010293159
    y: 0.689963280177
    z: 0.0
  orientation: 
    x: 0.0
    y: 0.0
    z: 0.0913247519306
    w: 0.995821163505
---
header: 
  seq: 1430
  stamp: 
    secs: 0
    nsecs:         0
  frame_id: /robot_frame
pose: 
  position: 
    x: 3.73010293159
    y: 0.689963280177
    z: 0.0
  orientation: 
    x: 0.0
    y: 0.0
    z: 0.0913247519306
    w: 0.995821163505
---
header: 
  seq: 1431
  stamp: 
    secs: 0
    nsecs:         0
  frame_id: /robot_frame
pose: 
  position: 
    x: 3.73010293159
    y: 0.689963280177
    z: 0.0
  orientation: 
    x: 0.0
    y: 0.0
    z: 0.0913247519306
    w: 0.995821163505
---
header: 
  seq: 1432
  stamp: 
    secs: 0
    nsecs:         0
  frame_id: /robot_frame
pose: 
  position: 
    x: 4.24001345297
    y: 0.842931584511
    z: 0.0
  orientation: 
    x: 0.0
    y: 0.0
    z: 0.0979652630102
    w: 0.995189834777
---
header: 
  seq: 1433
  stamp: 
    secs: 0
    nsecs:         0
  frame_id: /robot_frame
pose: 
  position: 
    x: 4.24001345297
    y: 0.842931584511
    z: 0.0
  orientation: 
    x: 0.0
    y: 0.0
    z: 0.0979652630102
    w: 0.995189834777
---
header: 
  seq: 1434
  stamp: 
    secs: 0
    nsecs:         0
  frame_id: /robot_frame
pose: 
  position: 
    x: 4.24001345297
    y: 0.842931584511
    z: 0.0
  orientation: 
    x: 0.0
    y: 0.0
    z: 0.0979652630102
    w: 0.995189834777
---
header: 
  seq: 1435
  stamp: 
    secs: 0
    nsecs:         0
  frame_id: /robot_frame
pose: 
  position: 
    x: 4.24001345297
    y: 0.842931584511
    z: 0.0
  orientation: 
    x: 0.0
    y: 0.0
    z: 0.0979652630102
    w: 0.995189834777
---
header: 
  seq: 1436
  stamp: 
    secs: 0
    nsecs:         0
  frame_id: /robot_frame
pose: 
  position: 
    x: 4.24001345297
    y: 0.842931584511
    z: 0.0
  orientation: 
    x: 0.0
    y: 0.0
    z: 0.0979652630102
    w: 0.995189834777
---
header: 
  seq: 1437
  stamp: 
    secs: 0
    nsecs:         0
  frame_id: /robot_frame
pose: 
  position: 
    x: 4.12943501295
    y: 0.920875417141
    z: 0.0
  orientation: 
    x: 0.0
    y: 0.0
    z: 0.10948638719
    w: 0.993988295213
---
header: 
  seq: 1438
  stamp: 
    secs: 0
    nsecs:         0
  frame_id: /robot_frame
pose: 
  position: 
    x: 4.12943501295
    y: 0.920875417141
    z: 0.0
  orientation: 
    x: 0.0
    y: 0.0
    z: 0.10948638719
    w: 0.993988295213
---
header: 
  seq: 1439
  stamp: 
    secs: 0
    nsecs:         0
  frame_id: /robot_frame
pose: 
  position: 
    x: 4.12943501295
    y: 0.920875417141
    z: 0.0
  orientation: 
    x: 0.0
    y: 0.0
    z: 0.10948638719
    w: 0.993988295213
---
header: 
  seq: 1440
  stamp: 
    secs: 0
    nsecs:         0
  frame_id: /robot_frame
pose: 
  position: 
    x: 4.12943501295
    y: 0.920875417141
    z: 0.0
  orientation: 
    x: 0.0
    y: 0.0
    z: 0.10948638719
    w: 0.993988295213
---
header: 
  seq: 1441
  stamp: 
    secs: 0
    nsecs:         0
  frame_id: /robot_frame
pose: 
  position: 
    x: 4.12943501295
    y: 0.920875417141
    z: 0.0
  orientation: 
    x: 0.0
    y: 0.0
    z: 0.10948638719
    w: 0.993988295213
---
header: 
  seq: 1442
  stamp: 
    secs: 0
    nsecs:         0
  frame_id: /robot_frame
pose: 
  position: 
    x: 3.56208785392
    y: 0.800314604393
    z: 0.0
  orientation: 
    x: 0.0
    y: 0.0
    z: 0.110278124339
    w: 0.993900767327
---
header: 
  seq: 1443
  stamp: 
    secs: 0
    nsecs:         0
  frame_id: /robot_frame
pose: 
  position: 
    x: 3.56208785392
    y: 0.800314604393
    z: 0.0
  orientation: 
    x: 0.0
    y: 0.0
    z: 0.110278124339
    w: 0.993900767327
---
header: 
  seq: 1444
  stamp: 
    secs: 0
    nsecs:         0
  frame_id: /robot_frame
pose: 
  position: 
    x: 3.56208785392
    y: 0.800314604393
    z: 0.0
  orientation: 
    x: 0.0
    y: 0.0
    z: 0.110278124339
    w: 0.993900767327
---
header: 
  seq: 1445
  stamp: 
