linear: 
  x: 0.138665020146
  y: 0.0
  z: 0.0
angular: 
  x: 0.0
  y: 0.0
  z: -0.000532978791706
---
linear: 
  x: 0.138665020146
  y: 0.0
  z: 0.0
angular: 
  x: 0.0
  y: 0.0
  z: -0.000532978791706
---
linear: 
  x: 0.170941303666
  y: 0.0
  z: 0.0
angular: 
  x: 0.0
  y: 0.0
  z: -0.00024405624633
---
linear: 
  x: 0.25097477844
  y: 0.0
  z: 0.0
angular: 
  x: 0.0
  y: 0.0
  z: -0.000290952804283
---
linear: 
  x: 0.25097477844
  y: 0.0
  z: 0.0
angular: 
  x: 0.0
  y: 0.0
  z: -0.000290952804283
---
linear: 
  x: 0.10889631937
  y: 0.0
  z: 0.0
angular: 
  x: 0.0
  y: 0.0
  z: -0.000156030931273
---
linear: 
  x: 0.111236040239
  y: 0.0
  z: 0.0
angular: 
  x: 0.0
  y: 0.0
  z: 0.00215613901589
---
linear: 
  x: 0.0976794701254
  y: 0.0
  z: 0.0
angular: 
  x: 0.0
  y: 0.0
  z: 0.0013721586669
---
linear: 
  x: 0.0841356004208
  y: 0.0
  z: 0.0
angular: 
  x: 0.0
  y: 0.0
  z: 0.00180696887184
---
linear: 
  x: 0.0906751291036
  y: 0.0
  z: 0.0
angular: 
  x: 0.0
  y: 0.0
  z: 0.000874274909272
---
linear: 
  x: 0.0782186618186
  y: 0.0
  z: 0.0
angular: 
  x: 0.0
  y: 0.0
  z: 0.0327648488002
---
linear: 
  x: 0.0735015511456
  y: 0.0
  z: 0.0
angular: 
  x: 0.0
  y: 0.0
  z: 0.0971431326574
---
linear: 
  x: 0.097932945171
  y: 0.0
  z: 0.0
angular: 
  x: 0.0
  y: 0.0
  z: 0.0909119931701
---
linear: 
  x: 0.138249439021
  y: 0.0
  z: 0.0
angular: 
  x: 0.0
  y: 0.0
  z: 0.0971337901699
---
linear: 
  x: 0.138249439021
  y: 0.0
  z: 0.0
angular: 
  x: 0.0
  y: 0.0
  z: 0.0971337901699
---
linear: 
  x: 0.0847930734305
  y: 0.0
  z: 0.0
angular: 
  x: 0.0
  y: 0.0
  z: 0.127606437443
---
linear: 
  x: 0.0819561943026
  y: 0.0
  z: 0.0
angular: 
  x: 0.0
  y: 0.0
  z: 0.131341333819
---
linear: 
  x: 0.0875955127073
  y: 0.0
  z: 0.0
angular: 
  x: 0.0
  y: 0.0
  z: 0.132976919374
---
linear: 
  x: 0.129664392251
  y: 0.0
  z: 0.0
angular: 
  x: 0.0
  y: 0.0
  z: 0.128550576791
---
linear: 
  x: 0.132960805041
  y: 0.0
  z: 0.0
angular: 
  x: 0.0
  y: 0.0
  z: 0.130769106387
---
linear: 
  x: 0.111969205586
  y: 0.0
  z: 0.0
angular: 
  x: 0.0
  y: 0.0
  z: 0.130136817503
---
linear: 
  x: 0.111969205586
  y: 0.0
  z: 0.0
angular: 
  x: 0.0
  y: 0.0
  z: 0.130136817503
---
linear: 
  x: 0.109059130833
  y: 0.0
  z: 0.0
angular: 
  x: 0.0
  y: 0.0
  z: 0.130523873119
---
linear: 
  x: 0.0947890834536
  y: 0.0
  z: 0.0
angular: 
  x: 0.0
  y: 0.0
  z: 0.0971779395138
---
linear: 
  x: 0.0828649246818
  y: 0.0
  z: 0.0
angular: 
  x: 0.0
  y: 0.0
  z: 0.0976308141701
---
linear: 
  x: 0.110573237687
  y: 0.0
  z: 0.0
angular: 
  x: 0.0
  y: 0.0
  z: 0.128163868397
---
linear: 
  x: 0.0874815117506
  y: 0.0
  z: 0.0
angular: 
  x: 0.0
  y: 0.0
  z: 0.128910151846
---
linear: 
  x: 0.0874815117506
  y: 0.0
  z: 0.0
angular: 
  x: 0.0
  y: 0.0
  z: 0.128910151846
---
linear: 
  x: 0.10600463125
  y: 0.0
  z: 0.0
angular: 
  x: 0.0
  y: 0.0
  z: 0.133027021495
---
linear: 
  x: 0.107371661804
  y: 0.0
  z: 0.0
angular: 
  x: 0.0
  y: 0.0
  z: 0.130427570955
---
linear: 
  x: 0.102414762101
  y: 0.0
  z: 0.0
angular: 
  x: 0.0
  y: 0.0
  z: 0.134159875513
---
linear: 
  x: 0.0846062060776
  y: 0.0
  z: 0.0
angular: 
  x: 0.0
  y: 0.0
  z: 0.13280775362
---
linear: 
  x: 0.108383685981
  y: 0.0
  z: 0.0
angular: 
  x: 0.0
  y: 0.0
  z: 0.0972064787361
---
linear: 
  x: 0.142994612675
  y: 0.0
  z: 0.0
angular: 
  x: 0.0
  y: 0.0
  z: 0.129362534555
---
linear: 
  x: 0.135928642778
  y: 0.0
  z: 0.0
angular: 
  x: 0.0
  y: 0.0
  z: 0.128807627446
---
linear: 
  x: 0.135928642778
  y: 0.0
  z: 0.0
angular: 
  x: 0.0
  y: 0.0
  z: 0.128807627446
---
linear: 
  x: 0.0903992701279
  y: 0.0
  z: 0.0
angular: 
  x: 0.0
  y: 0.0
  z: 0.128714995632
---
linear: 
  x: 0.0783607375724
  y: 0.0
  z: 0.0
angular: 
  x: 0.0
  y: 0.0
  z: 0.132860178852
---
linear: 
  x: 0.0905309340046
  y: 0.0
  z: 0.0
angular: 
  x: 0.0
  y: 0.0
  z: 0.128733684981
---
linear: 
  x: 0.0905309340046
  y: 0.0
  z: 0.0
angular: 
  x: 0.0
  y: 0.0
  z: 0.128733684981
---
linear: 
  x: 0.0964926145902
  y: 0.0
  z: 0.0
angular: 
  x: 0.0
  y: 0.0
  z: 0.132096622773
---
linear: 
  x: 0.114830514024
  y: 0.0
  z: 0.0
angular: 
  x: 0.0
  y: 0.0
  z: 0.090895985512
---
linear: 
  x: 0.10016334457
  y: 0.0
  z: 0.0
angular: 
  x: 0.0
  y: 0.0
  z: 0.0971375843154
---
linear: 
  x: 0.10016334457
  y: 0.0
  z: 0.0
angular: 
  x: 0.0
  y: 0.0
  z: 0.0971375843154
---
linear: 
  x: 0.101424069584
  y: 0.0
  z: 0.0
angular: 
  x: 0.0
  y: 0.0
  z: 0.0909092220919
---
linear: 
  x: 0.0996830685697
  y: 0.0
  z: 0.0
angular: 
  x: 0.0
  y: 0.0
  z: 0.0953172939384
---
linear: 
  x: 0.0996830685697
  y: 0.0
  z: 0.0
angular: 
  x: 0.0
  y: 0.0
  z: 0.0953172939384
---
linear: 
  x: 0.0802216833051
  y: 0.0
  z: 0.0
angular: 
  x: 0.0
  y: 0.0
  z: 0.127527420084
---
linear: 
  x: 0.0884838427658
  y: 0.0
  z: 0.0
angular: 
  x: 0.0
  y: 0.0
  z: 0.0971625452382
---
linear: 
  x: 0.0594592599012
  y: 0.0
  z: 0.0
angular: 
  x: 0.0
  y: 0.0
  z: 0.0909596768849
---
linear: 
  x: 0.0594592599012
  y: 0.0
  z: 0.0
angular: 
  x: 0.0
  y: 0.0
  z: 0.0909596768849
---
linear: 
  x: 0.0694498230198
  y: 0.0
  z: 0.0
angular: 
  x: 0.0
  y: 0.0
  z: 0.0952382115146
---
linear: 
  x: 0.0714860917904
  y: 0.0
  z: 0.0
angular: 
  x: 0.0
  y: 0.0
  z: 0.0919955289123
---
linear: 
  x: 0.0681658616082
  y: 0.0
  z: 0.0
angular: 
  x: 0.0
  y: 0.0
  z: 0.0971543371606
---
linear: 
  x: 0.0702477976835
  y: 0.0
  z: 0.0
angular: 
  x: 0.0
  y: 0.0
  z: 0.0971248398538
---
linear: 
  x: 0.0919950501895
  y: 0.0
  z: 0.0
angular: 
  x: 0.0
  y: 0.0
  z: 0.03515987819
---
linear: 
  x: 0.0864424145841
  y: 0.0
  z: 0.0
angular: 
  x: 0.0
  y: 0.0
  z: 0.0908832762912
---
linear: 
  x: 0.0864424145841
  y: 0.0
  z: 0.0
angular: 
  x: 0.0
  y: 0.0
  z: 0.0908832762912
---
linear: 
  x: 0.0452917806296
  y: 0.0
  z: 0.0
angular: 
  x: 0.0
  y: 0.0
  z: 0.097156446171
---
linear: 
  x: 0.0
  y: 0.0
  z: 0.0
angular: 
  x: 0.0
  y: 0.0
  z: 0.0
---
linear: 
  x: 0.0
  y: 0.0
  z: 0.0
angular: 
  x: 0.0
  y: 0.0
  z: 0.0
---
linear: 
  x: 0.0713138232858
  y: 0.0
  z: 0.0
angular: 
  x: 0.0
  y: 0.0
  z: 0.0351454791899
---
linear: 
  x: 0.0507421019951
  y: 0.0
  z: 0.0
angular: 
  x: 0.0
  y: 0.0
  z: 0.0334496421792
---
linear: 
  x: 0.0
  y: 0.0
  z: 0.0
angular: 
  x: 0.0
  y: 0.0
  z: 0.0
---
linear: 
  x: 0.0
  y: 0.0
  z: 0.0
angular: 
  x: 0.0
  y: 0.0
  z: 0.0
---
linear: 
  x: 0.0
  y: 0.0
  z: 0.0
angular: 
  x: 0.0
  y: 0.0
  z: 0.0
---
linear: 
  x: 0.0
  y: 0.0
  z: 0.0
angular: 
  x: 0.0
  y: 0.0
  z: 0.0
---
linear: 
  x: 0.0
  y: 0.0
  z: 0.0
angular: 
  x: 0.0
  y: 0.0
  z: 0.0
---
linear: 
  x: 0.0
  y: 0.0
  z: 0.0
angular: 
  x: 0.0
  y: 0.0
  z: 0.0
---
linear: 
  x: 0.0751526216122
  y: 0.0
  z: 0.0
angular: 
  x: 0.0
  y: 0.0
  z: 0.0971398898164
---
linear: 
  x: 0.101703707806
  y: 0.0
  z: 0.0
angular: 
  x: 0.0
  y: 0.0
  z: 0.0971019834135
---
linear: 
  x: 0.101703707806
  y: 0.0
  z: 0.0
angular: 
  x: 0.0
  y: 0.0
  z: 0.0971019834135
---
linear: 
  x: 0.0898936421809
  y: 0.0
  z: 0.0
angular: 
  x: 0.0
  y: 0.0
  z: 0.0332996420195
---
linear: 
  x: 0.0770659384703
  y: 0.0
  z: 0.0
angular: 
  x: 0.0
  y: 0.0
  z: 0.0351588211836
---
linear: 
  x: 0.068203107441
  y: 0.0
  z: 0.0
angular: 
  x: 0.0
  y: 0.0
  z: 0.0334152298416
---
linear: 
  x: 0.0936428167102
  y: 0.0
  z: 0.0
angular: 
  x: 0.0
  y: 0.0
  z: 0.00182621147431
---
linear: 
  x: 0.102499762657
  y: 0.0
  z: 0.0
angular: 
  x: 0.0
  y: 0.0
  z: -6.13377985531e-05
---
linear: 
  x: 0.102499762657
  y: 0.0
  z: 0.0
angular: 
  x: 0.0
  y: 0.0
  z: -6.13377985531e-05
---
linear: 
  x: 0.168611297834
  y: 0.0
  z: 0.0
angular: 
  x: 0.0
  y: 0.0
  z: -0.00134983932127
---
linear: 
  x: 0.232028657676
  y: 0.0
  z: 0.0
angular: 
  x: 0.0
  y: 0.0
  z: -0.00225144335428
---
linear: 
  x: 0.0
  y: 0.0
  z: 0.0
angular: 
  x: 0.0
  y: 0.0
  z: -0.182659050512
---
linear: 
  x: 0.0
  y: 0.0
  z: 0.0
angular: 
  x: 0.0
  y: 0.0
  z: -0.182659050512
---
linear: 
  x: 0.105634087186
  y: 0.0
  z: 0.0
angular: 
  x: 0.0
  y: 0.0
  z: -0.0452581262096
---
linear: 
  x: 0.105634087186
  y: 0.0
  z: 0.0
angular: 
  x: 0.0
  y: 0.0
  z: -0.0452581262096
---
linear: 
  x: 0.0932666051181
  y: 0.0
  z: 0.0
angular: 
  x: 0.0
  y: 0.0
  z: -0.0584753534951
---
linear: 
  x: 0.0932666051181
  y: 0.0
  z: 0.0
angular: 
  x: 0.0
  y: 0.0
  z: -0.0584753534951
---
linear: 
  x: 0.0577818886507
  y: 0.0
  z: 0.0
angular: 
  x: 0.0
  y: 0.0
  z: -0.116968976044
---
linear: 
  x: 0.0609590166199
  y: 0.0
  z: 0.0
angular: 
  x: 0.0
  y: 0.0
  z: -0.122904799287
---
linear: 
  x: 0.0714163209704
  y: 0.0
  z: 0.0
angular: 
  x: 0.0
  y: 0.0
  z: -0.128207959542
---
linear: 
  x: 0.0709761245234
  y: 0.0
  z: 0.0
angular: 
  x: 0.0
  y: 0.0
  z: -0.131115994808
---
linear: 
  x: 0.0
  y: 0.0
  z: 0.0
angular: 
  x: 0.0
  y: 0.0
  z: -0.3
---
linear: 
  x: 0.0
  y: 0.0
  z: 0.0
angular: 
  x: 0.0
  y: 0.0
  z: -0.3
---
linear: 
  x: 0.0654875933837
  y: 0.0
  z: 0.0
angular: 
  x: 0.0
  y: 0.0
  z: -0.165003147293
---
linear: 
  x: 0.0545850739703
  y: 0.0
  z: 0.0
angular: 
  x: 0.0
  y: 0.0
  z: -0.123912214221
---
linear: 
  x: 0.054576364746
  y: 0.0
  z: 0.0
angular: 
  x: 0.0
  y: 0.0
  z: -0.12398817556
---
linear: 
  x: 0.0924522740131
  y: 0.0
  z: 0.0
angular: 
  x: 0.0
  y: 0.0
  z: -0.179870880869
---
linear: 
  x: 0.070621560861
  y: 0.0
  z: 0.0
angular: 
  x: 0.0
  y: 0.0
  z: -0.173710039467
---
linear: 
  x: 0.0505222287213
  y: 0.0
  z: 0.0
angular: 
  x: 0.0
  y: 0.0
  z: -0.192778228679
---
linear: 
  x: 0.0505632996455
  y: 0.0
  z: 0.0
angular: 
  x: 0.0
  y: 0.0
  z: -0.19244718678
---
linear: 
  x: 0.067003377987
  y: 0.0
  z: 0.0
angular: 
  x: 0.0
  y: 0.0
  z: -0.125093823964
---
linear: 
  x: 0.0659382954216
  y: 0.0
  z: 0.0
angular: 
  x: 0.0
  y: 0.0
  z: -0.132642910346
---
linear: 
  x: 0.0659382954216
  y: 0.0
  z: 0.0
angular: 
  x: 0.0
  y: 0.0
  z: -0.132642910346
---
linear: 
  x: 0.0505569996979
  y: 0.0
  z: 0.0
angular: 
  x: 0.0
  y: 0.0
  z: -0.123819075039
---
linear: 
  x: 0.0704967297886
  y: 0.0
  z: 0.0
angular: 
  x: 0.0
  y: 0.0
  z: -0.170863506982
---
linear: 
  x: 0.101739123894
  y: 0.0
  z: 0.0
angular: 
  x: 0.0
  y: 0.0
  z: -0.17449599377
---
linear: 
  x: 0.17541048024
  y: 0.0
  z: 0.0
angular: 
  x: 0.0
  y: 0.0
  z: -0.179777286931
---
linear: 
  x: 0.160184049695
  y: 0.0
  z: 0.0
angular: 
  x: 0.0
  y: 0.0
  z: -0.179844032585
---
linear: 
  x: 0.160202277328
  y: 0.0
  z: 0.0
angular: 
  x: 0.0
  y: 0.0
  z: -0.179796222278
---
linear: 
  x: 0.0426892178052
  y: 0.0
  z: 0.0
angular: 
  x: 0.0
  y: 0.0
  z: -0.126459324208
---
linear: 
  x: 0.181512816603
  y: 0.0
  z: 0.0
angular: 
  x: 0.0
  y: 0.0
  z: -0.16531246994
---
linear: 
  x: 0.181528313497
  y: 0.0
  z: 0.0
angular: 
  x: 0.0
  y: 0.0
  z: -0.165275520237
---
linear: 
  x: 0.198930447385
  y: 0.0
  z: 0.0
angular: 
  x: 0.0
  y: 0.0
  z: -0.125617394734
---
linear: 
  x: 0.125088140895
  y: 0.0
  z: 0.0
angular: 
  x: 0.0
  y: 0.0
  z: -0.167399398282
---
linear: 
  x: 0.139220415781
  y: 0.0
  z: 0.0
angular: 
  x: 0.0
  y: 0.0
  z: -0.145697330277
---
linear: 
  x: 0.138956200605
  y: 0.0
  z: 0.0
angular: 
  x: 0.0
  y: 0.0
  z: -0.146559514599
---
linear: 
  x: 0.0598595189787
  y: 0.0
  z: 0.0
angular: 
  x: 0.0
  y: 0.0
  z: -0.14501274564
---
linear: 
  x: 0.0595234076182
  y: 0.0
  z: 0.0
angular: 
  x: 0.0
  y: 0.0
  z: -0.147567500301
---
linear: 
  x: 0.103514568557
  y: 0.0
  z: 0.0
angular: 
  x: 0.0
  y: 0.0
  z: -0.142930758054
---
linear: 
  x: 0.104508553425
  y: 0.0
  z: 0.0
angular: 
  x: 0.0
  y: 0.0
  z: -0.138541811489
---
linear: 
  x: 0.0760995552056
  y: 0.0
  z: 0.0
angular: 
  x: 0.0
  y: 0.0
  z: -0.138083718059
---
linear: 
  x: 0.0669441359321
  y: 0.0
  z: 0.0
angular: 
  x: 0.0
  y: 0.0
  z: -0.133840095979
---
linear: 
  x: 0.0737282847302
  y: 0.0
  z: 0.0
angular: 
  x: 0.0
  y: 0.0
  z: -0.136831435087
---
linear: 
  x: 0.0941588553736
  y: 0.0
  z: 0.0
angular: 
  x: 0.0
  y: 0.0
  z: -0.135464318633
---
linear: 
  x: 0.0976718296123
  y: 0.0
  z: 0.0
angular: 
  x: 0.0
  y: 0.0
  z: -0.11813294948
---
linear: 
  x: 0.0641193253766
  y: 0.0
  z: 0.0
angular: 
  x: 0.0
  y: 0.0
  z: -0.109347209437
---
linear: 
  x: 0.0642528287702
  y: 0.0
  z: 0.0
angular: 
  x: 0.0
  y: 0.0
  z: -0.108325617082
---
linear: 
  x: 0.0642528287702
  y: 0.0
  z: 0.0
angular: 
  x: 0.0
  y: 0.0
  z: -0.108325617082
---
linear: 
  x: 0.0455269738001
  y: 0.0
  z: 0.0
angular: 
  x: 0.0
  y: 0.0
  z: -0.102038880915
---
linear: 
  x: 0.0789785340956
  y: 0.0
  z: 0.0
angular: 
  x: 0.0
  y: 0.0
  z: -0.0462402615985
---
linear: 
  x: 0.118866073146
  y: 0.0
  z: 0.0
angular: 
  x: 0.0
  y: 0.0
  z: -0.0521394912804
---
linear: 
  x: 0.23189780021
  y: 0.0
  z: 0.0
angular: 
  x: 0.0
  y: 0.0
  z: -0.0464285143705
---
