linear: 
  x: 0.129790268545
  y: 0.0
  z: 0.0
angular: 
  x: 0.0
  y: 0.0
  z: -0.0422714884549
---
linear: 
  x: 0.129861516397
  y: 0.0
  z: 0.0
angular: 
  x: 0.0
  y: 0.0
  z: -0.0401109920158
---
linear: 
  x: 0.122259769463
  y: 0.0
  z: 0.0
angular: 
  x: 0.0
  y: 0.0
  z: -0.0423690255433
---
linear: 
  x: 0.154616951396
  y: 0.0
  z: 0.0
angular: 
  x: 0.0
  y: 0.0
  z: -0.0530636804651
---
linear: 
  x: 0.154853010161
  y: 0.0
  z: 0.0
angular: 
  x: 0.0
  y: 0.0
  z: -0.0579494934358
---
linear: 
  x: 0.110689441101
  y: 0.0
  z: 0.0
angular: 
  x: 0.0
  y: 0.0
  z: -0.0738343367517
---
linear: 
  x: 0.106746138904
  y: 0.0
  z: 0.0
angular: 
  x: 0.0
  y: 0.0
  z: -0.0748249489809
---
linear: 
  x: 0.106746138904
  y: 0.0
  z: 0.0
angular: 
  x: 0.0
  y: 0.0
  z: -0.0748249489809
---
linear: 
  x: 0.111177249364
  y: 0.0
  z: 0.0
angular: 
  x: 0.0
  y: 0.0
  z: -0.0697812255052
---
linear: 
  x: 0.115422889931
  y: 0.0
  z: 0.0
angular: 
  x: 0.0
  y: 0.0
  z: -0.0643288214071
---
linear: 
  x: 0.105159177623
  y: 0.0
  z: 0.0
angular: 
  x: 0.0
  y: 0.0
  z: -0.0604562470539
---
linear: 
  x: 0.0975419115786
  y: 0.0
  z: 0.0
angular: 
  x: 0.0
  y: 0.0
  z: -0.0714955029977
---
linear: 
  x: 0.097820102371
  y: 0.0
  z: 0.0
angular: 
  x: 0.0
  y: 0.0
  z: -0.119675820589
---
linear: 
  x: 0.0950924799289
  y: 0.0
  z: 0.0
angular: 
  x: 0.0
  y: 0.0
  z: -0.145232623183
---
linear: 
  x: 0.100366735417
  y: 0.0
  z: 0.0
angular: 
  x: 0.0
  y: 0.0
  z: -0.126341255484
---
linear: 
  x: 0.100366735417
  y: 0.0
  z: 0.0
angular: 
  x: 0.0
  y: 0.0
  z: -0.126341255484
---
linear: 
  x: 0.108128950228
  y: 0.0
  z: 0.0
angular: 
  x: 0.0
  y: 0.0
  z: -0.122713201731
---
linear: 
  x: 0.0944735531593
  y: 0.0
  z: 0.0
angular: 
  x: 0.0
  y: 0.0
  z: -0.124072594432
---
linear: 
  x: 0.0861842788482
  y: 0.0
  z: 0.0
angular: 
  x: 0.0
  y: 0.0
  z: -0.17583889526
---
linear: 
  x: 0.131780635443
  y: 0.0
  z: 0.0
angular: 
  x: 0.0
  y: 0.0
  z: -0.184340491586
---
linear: 
  x: 0.130589957433
  y: 0.0
  z: 0.0
angular: 
  x: 0.0
  y: 0.0
  z: -0.183842050034
---
linear: 
  x: 0.130589957433
  y: 0.0
  z: 0.0
angular: 
  x: 0.0
  y: 0.0
  z: -0.183842050034
---
linear: 
  x: 0.130589957433
  y: 0.0
  z: 0.0
angular: 
  x: 0.0
  y: 0.0
  z: -0.183842050034
---
linear: 
  x: 0.0958293610702
  y: 0.0
  z: 0.0
angular: 
  x: 0.0
  y: 0.0
  z: -0.179162464545
---
linear: 
  x: 0.103081329047
  y: 0.0
  z: 0.0
angular: 
  x: 0.0
  y: 0.0
  z: -0.186320872839
---
linear: 
  x: 0.0973758319919
  y: 0.0
  z: 0.0
angular: 
  x: 0.0
  y: 0.0
  z: -0.184799699135
---
linear: 
  x: 0.0888079016751
  y: 0.0
  z: 0.0
angular: 
  x: 0.0
  y: 0.0
  z: -0.185902968348
---
linear: 
  x: 0.0951360339955
  y: 0.0
  z: 0.0
angular: 
  x: 0.0
  y: 0.0
  z: -0.192080128896
---
linear: 
  x: 0.0837666039682
  y: 0.0
  z: 0.0
angular: 
  x: 0.0
  y: 0.0
  z: -0.196314539296
---
linear: 
  x: 0.0773692195896
  y: 0.0
  z: 0.0
angular: 
  x: 0.0
  y: 0.0
  z: -0.199116203278
---
linear: 
  x: 0.106504640466
  y: 0.0
  z: 0.0
angular: 
  x: 0.0
  y: 0.0
  z: -0.201929650045
---
linear: 
  x: 0.115808204419
  y: 0.0
  z: 0.0
angular: 
  x: 0.0
  y: 0.0
  z: -0.201996684561
---
linear: 
  x: 0.0695713752269
  y: 0.0
  z: 0.0
angular: 
  x: 0.0
  y: 0.0
  z: -0.200011484206
---
linear: 
  x: 0.0695713752269
  y: 0.0
  z: 0.0
angular: 
  x: 0.0
  y: 0.0
  z: -0.200011484206
---
linear: 
  x: 0.0404525647009
  y: 0.0
  z: 0.0
angular: 
  x: 0.0
  y: 0.0
  z: -0.201802024374
---
linear: 
  x: 0.0798128063001
  y: 0.0
  z: 0.0
angular: 
  x: 0.0
  y: 0.0
  z: -0.199199062098
---
linear: 
  x: 0.117405070432
  y: 0.0
  z: 0.0
angular: 
  x: 0.0
  y: 0.0
  z: -0.215293074966
---
linear: 
  x: 0.117405070432
  y: 0.0
  z: 0.0
angular: 
  x: 0.0
  y: 0.0
  z: -0.215293074966
---
linear: 
  x: 0.0777945740464
  y: 0.0
  z: 0.0
angular: 
  x: 0.0
  y: 0.0
  z: -0.208648243268
---
linear: 
  x: 0.079909053433
  y: 0.0
  z: 0.0
angular: 
  x: 0.0
  y: 0.0
  z: -0.203774757145
---
linear: 
  x: 0.0729036167272
  y: 0.0
  z: 0.0
angular: 
  x: 0.0
  y: 0.0
  z: -0.215404275079
---
linear: 
  x: 0.088258667558
  y: 0.0
  z: 0.0
angular: 
  x: 0.0
  y: 0.0
  z: -0.237289611581
---
linear: 
  x: 0.0936587262795
  y: 0.0
  z: 0.0
angular: 
  x: 0.0
  y: 0.0
  z: -0.241038909233
---
linear: 
  x: 0.106508456619
  y: 0.0
  z: 0.0
angular: 
  x: 0.0
  y: 0.0
  z: -0.247151429742
---
linear: 
  x: 0.101338225225
  y: 0.0
  z: 0.0
angular: 
  x: 0.0
  y: 0.0
  z: -0.243819851023
---
linear: 
  x: 0.101338225225
  y: 0.0
  z: 0.0
angular: 
  x: 0.0
  y: 0.0
  z: -0.243819851023
---
linear: 
  x: 0.08316433817
  y: 0.0
  z: 0.0
angular: 
  x: 0.0
  y: 0.0
  z: -0.24027966065
---
linear: 
  x: 0.0771273773232
  y: 0.0
  z: 0.0
angular: 
  x: 0.0
  y: 0.0
  z: -0.242054370463
---
linear: 
  x: 0.0986169325159
  y: 0.0
  z: 0.0
angular: 
  x: 0.0
  y: 0.0
  z: -0.24365045458
---
linear: 
  x: 0.116010944768
  y: 0.0
  z: 0.0
angular: 
  x: 0.0
  y: 0.0
  z: -0.240477100621
---
linear: 
  x: 0.130180272311
  y: 0.0
  z: 0.0
angular: 
  x: 0.0
  y: 0.0
  z: -0.240490171982
---
linear: 
  x: 0.11412688633
  y: 0.0
  z: 0.0
angular: 
  x: 0.0
  y: 0.0
  z: -0.239512938276
---
linear: 
  x: 0.0876884063038
  y: 0.0
  z: 0.0
angular: 
  x: 0.0
  y: 0.0
  z: -0.240211481375
---
linear: 
  x: 0.0876884063038
  y: 0.0
  z: 0.0
angular: 
  x: 0.0
  y: 0.0
  z: -0.240211481375
---
linear: 
  x: 0.0886265177277
  y: 0.0
  z: 0.0
angular: 
  x: 0.0
  y: 0.0
  z: -0.243037606116
---
linear: 
  x: 0.0944353531425
  y: 0.0
  z: 0.0
angular: 
  x: 0.0
  y: 0.0
  z: -0.244261225627
---
linear: 
  x: 0.0976816782197
  y: 0.0
  z: 0.0
angular: 
  x: 0.0
  y: 0.0
  z: -0.245026709492
---
linear: 
  x: 0.112940143805
  y: 0.0
  z: 0.0
angular: 
  x: 0.0
  y: 0.0
  z: -0.243108525362
---
linear: 
  x: 0.112940143805
  y: 0.0
  z: 0.0
angular: 
  x: 0.0
  y: 0.0
  z: -0.243108525362
---
linear: 
  x: 0.0959756316738
  y: 0.0
  z: 0.0
angular: 
  x: 0.0
  y: 0.0
  z: -0.245000519345
---
linear: 
  x: 0.0927692426857
  y: 0.0
  z: 0.0
angular: 
  x: 0.0
  y: 0.0
  z: -0.243837306251
---
linear: 
  x: 0.112732485603
  y: 0.0
  z: 0.0
angular: 
  x: 0.0
  y: 0.0
  z: -0.241728007025
---
linear: 
  x: 0.105637034844
  y: 0.0
  z: 0.0
angular: 
  x: 0.0
  y: 0.0
  z: -0.239048428807
---
linear: 
  x: 0.0772887823274
  y: 0.0
  z: 0.0
angular: 
  x: 0.0
  y: 0.0
  z: -0.231687734263
---
linear: 
  x: 0.0772887823274
  y: 0.0
  z: 0.0
angular: 
  x: 0.0
  y: 0.0
  z: -0.231687734263
---
linear: 
  x: 0.129133399926
  y: 0.0
  z: 0.0
angular: 
  x: 0.0
  y: 0.0
  z: -0.220313873309
---
linear: 
  x: 0.129133399926
  y: 0.0
  z: 0.0
angular: 
  x: 0.0
  y: 0.0
  z: -0.220313873309
---
linear: 
  x: 0.129133399926
  y: 0.0
  z: 0.0
angular: 
  x: 0.0
  y: 0.0
  z: -0.220313873309
---
linear: 
  x: 0.100087511506
  y: 0.0
  z: 0.0
angular: 
  x: 0.0
  y: 0.0
  z: -0.193409836393
---
linear: 
  x: 0.100086976636
  y: 0.0
  z: 0.0
angular: 
  x: 0.0
  y: 0.0
  z: -0.193412009219
---
linear: 
  x: 0.0855259815623
  y: 0.0
  z: 0.0
angular: 
  x: 0.0
  y: 0.0
  z: -0.0611615559099
---
linear: 
  x: 0.0855259815623
  y: 0.0
  z: 0.0
angular: 
  x: 0.0
  y: 0.0
  z: -0.0611615559099
---
linear: 
  x: 0.0800998975054
  y: 0.0
  z: 0.0
angular: 
  x: 0.0
  y: 0.0
  z: -0.0039240656172
---
linear: 
  x: 0.0579554101177
  y: 0.0
  z: 0.0
angular: 
  x: 0.0
  y: 0.0
  z: -0.00110264386214
---
linear: 
  x: 0.0533526788895
  y: 0.0
  z: 0.0
angular: 
  x: 0.0
  y: 0.0
  z: 0.0353127949253
---
linear: 
  x: 0.0533526788895
  y: 0.0
  z: 0.0
angular: 
  x: 0.0
  y: 0.0
  z: 0.0353127949253
---
linear: 
  x: 0.0990080377147
  y: 0.0
  z: 0.0
angular: 
  x: 0.0
  y: 0.0
  z: 0.0984711281155
---
linear: 
  x: 0.0990080377147
  y: 0.0
  z: 0.0
angular: 
  x: 0.0
  y: 0.0
  z: 0.0984711281155
---
linear: 
  x: 0.0990080377147
  y: 0.0
  z: 0.0
angular: 
  x: 0.0
  y: 0.0
  z: 0.0984711281155
---
linear: 
  x: 0.125856346814
  y: 0.0
  z: 0.0
angular: 
  x: 0.0
  y: 0.0
  z: 0.0353145111654
---
linear: 
  x: 0.116760729401
  y: 0.0
  z: 0.0
angular: 
  x: 0.0
  y: 0.0
  z: 0.0353224411457
---
linear: 
  x: 0.0714211238195
  y: 0.0
  z: 0.0
angular: 
  x: 0.0
  y: 0.0
  z: 0.0908649314978
---
linear: 
  x: 0.0500532599791
  y: 0.0
  z: 0.0
angular: 
  x: 0.0
  y: 0.0
  z: 0.130428790609
---
linear: 
  x: 0.0
  y: 0.0
  z: 0.0
angular: 
  x: 0.0
  y: 0.0
  z: 0.283398895918
---
linear: 
  x: 0.0
  y: 0.0
  z: 0.0
angular: 
  x: 0.0
  y: 0.0
  z: 0.283398895918
---
linear: 
  x: 0.0418472488301
  y: 0.0
  z: 0.0
angular: 
  x: 0.0
  y: 0.0
  z: 0.167227914348
---
linear: 
  x: 0.0
  y: 0.0
  z: 0.0
angular: 
  x: 0.0
  y: 0.0
  z: 0.3
---
linear: 
  x: 0.0
  y: 0.0
  z: 0.0
angular: 
  x: 0.0
  y: 0.0
  z: 0.3
---
linear: 
  x: 0.0529139549336
  y: 0.0
  z: 0.0
angular: 
  x: 0.0
  y: 0.0
  z: 0.167769387135
---
linear: 
  x: 0.0520688840181
  y: 0.0
  z: 0.0
angular: 
  x: 0.0
  y: 0.0
  z: 0.129768145224
---
linear: 
  x: 0.0492415235478
  y: 0.0
  z: 0.0
angular: 
  x: 0.0
  y: 0.0
  z: 0.129086726768
---
linear: 
  x: 0.0557067084758
  y: 0.0
  z: 0.0
angular: 
  x: 0.0
  y: 0.0
  z: 0.131026205314
---
linear: 
  x: 0.0557067084758
  y: 0.0
  z: 0.0
angular: 
  x: 0.0
  y: 0.0
  z: 0.131026205314
---
linear: 
  x: 0.0527934880539
  y: 0.0
  z: 0.0
angular: 
  x: 0.0
  y: 0.0
  z: 0.133100572809
---
linear: 
  x: 0.044569206996
  y: 0.0
  z: 0.0
angular: 
  x: 0.0
  y: 0.0
  z: 0.130747706537
---
linear: 
  x: 0.044569206996
  y: 0.0
  z: 0.0
angular: 
  x: 0.0
  y: 0.0
  z: 0.130747706537
---
linear: 
  x: 0.0
  y: 0.0
  z: 0.0
angular: 
  x: 0.0
  y: 0.0
  z: 0.263999883837
---
linear: 
  x: 0.071672632455
  y: 0.0
  z: 0.0
angular: 
  x: 0.0
  y: 0.0
  z: 0.129542997002
---
linear: 
  x: 0.071672632455
  y: 0.0
  z: 0.0
angular: 
  x: 0.0
  y: 0.0
  z: 0.129542997002
---
linear: 
  x: 0.0769403410175
  y: 0.0
  z: 0.0
angular: 
  x: 0.0
  y: 0.0
  z: 0.132910168476
---
linear: 
  x: 0.0444436794675
  y: 0.0
  z: 0.0
angular: 
  x: 0.0
  y: 0.0
  z: 0.131918085486
---
linear: 
  x: 0.0746164659242
  y: 0.0
  z: 0.0
angular: 
  x: 0.0
  y: 0.0
  z: 0.128863326638
---
linear: 
  x: 0.0766573590711
  y: 0.0
  z: 0.0
angular: 
  x: 0.0
  y: 0.0
  z: 0.128956214217
---
linear: 
  x: 0.0766573590711
  y: 0.0
  z: 0.0
angular: 
  x: 0.0
  y: 0.0
  z: 0.128956214217
---
linear: 
  x: 0.0595096840461
  y: 0.0
  z: 0.0
angular: 
  x: 0.0
  y: 0.0
  z: 0.12892751572
---
linear: 
  x: 0.0951472399177
  y: 0.0
  z: 0.0
angular: 
  x: 0.0
  y: 0.0
  z: 0.130403811562
---
linear: 
  x: 0.0951472399177
  y: 0.0
  z: 0.0
angular: 
  x: 0.0
  y: 0.0
  z: 0.130403811562
---
linear: 
  x: 0.0608182611944
  y: 0.0
  z: 0.0
angular: 
  x: 0.0
  y: 0.0
  z: 0.0927851933457
---
linear: 
  x: 0.0
  y: 0.0
  z: 0.0
angular: 
  x: 0.0
  y: 0.0
  z: 0.171092313718
---
linear: 
  x: 0.0
  y: 0.0
  z: 0.0
angular: 
  x: 0.0
  y: 0.0
  z: 0.192250773434
---
linear: 
  x: 0.0562910730723
  y: 0.0
  z: 0.0
angular: 
  x: 0.0
  y: 0.0
  z: 0.0973706546626
---
linear: 
  x: 0.0562910730723
  y: 0.0
  z: 0.0
angular: 
  x: 0.0
  y: 0.0
  z: 0.0973706546626
---
linear: 
  x: 0.0463994441572
  y: 0.0
  z: 0.0
angular: 
  x: 0.0
  y: 0.0
  z: 0.0974152313513
---
linear: 
  x: 0.0
  y: 0.0
  z: 0.0
angular: 
  x: 0.0
  y: 0.0
  z: 0.167818278341
---
linear: 
  x: 0.0429543643302
  y: 0.0
  z: 0.0
angular: 
  x: 0.0
  y: 0.0
  z: 0.0975561832438
---
linear: 
  x: 0.0476287805071
  y: 0.0
  z: 0.0
angular: 
  x: 0.0
  y: 0.0
  z: 0.0329386856886
---
linear: 
  x: 0.0476287805071
  y: 0.0
  z: 0.0
angular: 
  x: 0.0
  y: 0.0
  z: 0.0329386856886
---
linear: 
  x: 0.0
  y: 0.0
  z: 0.0
angular: 
  x: 0.0
  y: 0.0
  z: 0.0
---
linear: 
  x: 0.0
  y: 0.0
  z: 0.0
angular: 
  x: 0.0
  y: 0.0
  z: 0.0
---
linear: 
  x: 0.054088062582
  y: 0.0
  z: 0.0
angular: 
  x: 0.0
  y: 0.0
  z: 0.00177229471359
---
linear: 
  x: 0.054088062582
  y: 0.0
  z: 0.0
angular: 
  x: 0.0
  y: 0.0
  z: 0.00177229471359
---
linear: 
  x: 0.054088062582
  y: 0.0
  z: 0.0
angular: 
  x: 0.0
  y: 0.0
  z: 0.00177229471359
---
linear: 
  x: 0.054088062582
  y: 0.0
  z: 0.0
angular: 
  x: 0.0
  y: 0.0
  z: 0.00177229471359
---
linear: 
  x: 0.0759166552427
  y: 0.0
  z: 0.0
angular: 
  x: 0.0
  y: 0.0
  z: 0.00071888908361
---
linear: 
  x: 0.100337875762
  y: 0.0
  z: 0.0
angular: 
  x: 0.0
  y: 0.0
  z: 0.00128801790335
---
linear: 
  x: 0.100337875762
  y: 0.0
  z: 0.0
angular: 
  x: 0.0
  y: 0.0
  z: 0.00128801790335
---
linear: 
  x: 0.0680575420313
  y: 0.0
  z: 0.0
angular: 
  x: 0.0
  y: 0.0
  z: -0.000153805602476
---
linear: 
  x: 0.0680575420313
  y: 0.0
  z: 0.0
angular: 
  x: 0.0
  y: 0.0
  z: -0.000153805602476
---
linear: 
  x: 0.0601864928935
  y: 0.0
  z: 0.0
angular: 
  x: 0.0
  y: 0.0
  z: -0.000271273508927
---
linear: 
  x: 0.0601864928935
  y: 0.0
  z: 0.0
angular: 
  x: 0.0
  y: 0.0
  z: -0.000271273508927
---
linear: 
  x: 0.0601864928935
  y: 0.0
  z: 0.0
angular: 
  x: 0.0
  y: 0.0
  z: -0.000271273508927
---
linear: 
  x: 0.0601864928935
  y: 0.0
  z: 0.0
angular: 
  x: 0.0
  y: 0.0
  z: -0.000271273508927
---
linear: 
  x: 0.0632370285366
  y: 0.0
  z: 0.0
angular: 
  x: 0.0
  y: 0.0
  z: -0.0017899970271
---
linear: 
  x: 0.0772166723304
  y: 0.0
  z: 0.0
angular: 
  x: 0.0
  y: 0.0
  z: -0.00693799362527
---
linear: 
  x: 0.10390276009
  y: 0.0
  z: 0.0
angular: 
  x: 0.0
  y: 0.0
  z: -0.0101849673038
---
linear: 
  x: 0.103781824672
  y: 0.0
  z: 0.0
angular: 
  x: 0.0
  y: 0.0
  z: -0.0122933392289
---
linear: 
  x: 0.0825691599459
  y: 0.0
  z: 0.0
angular: 
  x: 0.0
  y: 0.0
  z: -0.0154423562568
---
linear: 
  x: 0.0883930294992
  y: 0.0
  z: 0.0
angular: 
  x: 0.0
  y: 0.0
  z: -0.0125415843348
---
linear: 
  x: 0.0796404041525
  y: 0.0
  z: 0.0
angular: 
  x: 0.0
  y: 0.0
  z: -0.0106363676904
---
linear: 
  x: 0.073430591759
  y: 0.0
  z: 0.0
angular: 
  x: 0.0
  y: 0.0
  z: -0.00959546441048
---
linear: 
  x: 0.073430591759
  y: 0.0
  z: 0.0
angular: 
  x: 0.0
  y: 0.0
  z: -0.00959546441048
---
linear: 
  x: 0.0835368184988
  y: 0.0
  z: 0.0
angular: 
  x: 0.0
  y: 0.0
  z: -0.00941005497495
---
linear: 
  x: 0.0825927601094
  y: 0.0
  z: 0.0
angular: 
  x: 0.0
  y: 0.0
  z: -0.0109934246506
---
linear: 
  x: 0.0788194278175
  y: 0.0
  z: 0.0
angular: 
  x: 0.0
  y: 0.0
  z: -0.0096582252142
---
linear: 
  x: 0.0825184001979
  y: 0.0
  z: 0.0
angular: 
  x: 0.0
  y: 0.0
  z: -0.00761870813816
---
linear: 
  x: 0.0901607963719
  y: 0.0
  z: 0.0
angular: 
  x: 0.0
  y: 0.0
  z: -0.00765779461228
---
linear: 
  x: 0.0847911982195
  y: 0.0
  z: 0.0
angular: 
  x: 0.0
  y: 0.0
  z: -0.00997879859816
---
linear: 
  x: 0.074839882307
  y: 0.0
  z: 0.0
angular: 
  x: 0.0
  y: 0.0
  z: -0.0112914811362
---
linear: 
  x: 0.074839882307
  y: 0.0
  z: 0.0
angular: 
  x: 0.0
  y: 0.0
  z: -0.0112914811362
---
linear: 
  x: 0.0708181718879
  y: 0.0
  z: 0.0
angular: 
  x: 0.0
  y: 0.0
  z: -0.0102171881865
---
linear: 
  x: 0.0595962217289
  y: 0.0
  z: 0.0
angular: 
  x: 0.0
  y: 0.0
  z: -0.0105446815689
---
linear: 
  x: 0.0722852695097
  y: 0.0
  z: 0.0
angular: 
  x: 0.0
  y: 0.0
  z: -0.013822453998
---
linear: 
  x: 0.0987458285414
  y: 0.0
  z: 0.0
angular: 
  x: 0.0
  y: 0.0
  z: -0.0270224082058
---
linear: 
  x: 0.102536291071
  y: 0.0
  z: 0.0
angular: 
  x: 0.0
  y: 0.0
  z: -0.0411156351491
---
linear: 
  x: 0.124624577225
  y: 0.0
  z: 0.0
angular: 
  x: 0.0
  y: 0.0
  z: -0.0449873178242
---
linear: 
  x: 0.145352895629
  y: 0.0
  z: 0.0
angular: 
  x: 0.0
  y: 0.0
  z: -0.0616221708376
---
linear: 
  x: 0.145352895629
  y: 0.0
  z: 0.0
angular: 
  x: 0.0
  y: 0.0
  z: -0.0616221708376
---
linear: 
  x: 0.145440261052
  y: 0.0
  z: 0.0
angular: 
  x: 0.0
  y: 0.0
  z: -0.0712904212776
---
linear: 
  x: 0.15880984798
  y: 0.0
  z: 0.0
angular: 
  x: 0.0
  y: 0.0
  z: -0.0868735739911
---
linear: 
  x: 0.145327641686
  y: 0.0
  z: 0.0
angular: 
  x: 0.0
  y: 0.0
  z: -0.0995912100334
---
linear: 
  x: 0.121950860556
  y: 0.0
  z: 0.0
angular: 
  x: 0.0
  y: 0.0
  z: -0.11870108783
---
linear: 
  x: 0.128839627089
  y: 0.0
  z: 0.0
angular: 
  x: 0.0
  y: 0.0
  z: -0.108467880498
---
linear: 
  x: 0.105568177395
  y: 0.0
  z: 0.0
angular: 
  x: 0.0
  y: 0.0
  z: -0.0736397758189
---
linear: 
  x: 0.0965389908223
  y: 0.0
  z: 0.0
angular: 
  x: 0.0
  y: 0.0
  z: -0.0828184070022
---
linear: 
  x: 0.112199320723
  y: 0.0
  z: 0.0
angular: 
  x: 0.0
  y: 0.0
  z: -0.121527509336
---
linear: 
  x: 0.0830860845643
  y: 0.0
  z: 0.0
angular: 
  x: 0.0
  y: 0.0
  z: -0.125582158233
---
linear: 
  x: 0.0810623737933
  y: 0.0
  z: 0.0
angular: 
  x: 0.0
  y: 0.0
  z: -0.169897356072
---
linear: 
  x: 0.0810623737933
  y: 0.0
  z: 0.0
angular: 
  x: 0.0
  y: 0.0
  z: -0.169897356072
---
linear: 
  x: 0.0992946273007
  y: 0.0
  z: 0.0
angular: 
  x: 0.0
  y: 0.0
  z: -0.180145195887
---
linear: 
  x: 0.0970115489202
  y: 0.0
  z: 0.0
angular: 
  x: 0.0
  y: 0.0
  z: -0.170533167034
---
linear: 
  x: 0.0942868349557
  y: 0.0
  z: 0.0
angular: 
  x: 0.0
  y: 0.0
  z: -0.179928378804
---
linear: 
  x: 0.0804614378086
  y: 0.0
  z: 0.0
angular: 
  x: 0.0
  y: 0.0
  z: -0.188505490891
---
linear: 
  x: 0.0804614378086
  y: 0.0
  z: 0.0
angular: 
  x: 0.0
  y: 0.0
  z: -0.188505490891
---
linear: 
  x: 0.0834963189603
  y: 0.0
  z: 0.0
angular: 
  x: 0.0
  y: 0.0
  z: -0.189923155237
---
linear: 
  x: 0.0871837255862
  y: 0.0
  z: 0.0
angular: 
  x: 0.0
  y: 0.0
  z: -0.188757136359
---
linear: 
  x: 0.0826846910809
  y: 0.0
  z: 0.0
angular: 
  x: 0.0
  y: 0.0
  z: -0.194694639382
---
linear: 
  x: 0.0901166286055
  y: 0.0
  z: 0.0
angular: 
  x: 0.0
  y: 0.0
  z: -0.194359139377
---
linear: 
  x: 0.094146232158
  y: 0.0
  z: 0.0
angular: 
  x: 0.0
  y: 0.0
  z: -0.187510588259
---
linear: 
  x: 0.125394739085
  y: 0.0
  z: 0.0
angular: 
  x: 0.0
  y: 0.0
  z: -0.179599389108
---
linear: 
  x: 0.10231111487
  y: 0.0
  z: 0.0
angular: 
  x: 0.0
  y: 0.0
  z: -0.131438459749
---
linear: 
  x: 0.10231111487
  y: 0.0
  z: 0.0
angular: 
  x: 0.0
  y: 0.0
  z: -0.131438459749
---
linear: 
  x: 0.0586317938025
  y: 0.0
  z: 0.0
angular: 
  x: 0.0
  y: 0.0
  z: -0.167832889888
---
linear: 
  x: 0.088218108162
  y: 0.0
  z: 0.0
angular: 
  x: 0.0
  y: 0.0
  z: -0.18549018984
---
linear: 
  x: 0.0803189470356
  y: 0.0
  z: 0.0
angular: 
  x: 0.0
  y: 0.0
  z: -0.190515767623
---
linear: 
  x: 0.0803189470356
  y: 0.0
  z: 0.0
angular: 
  x: 0.0
  y: 0.0
  z: -0.190515767623
---
linear: 
  x: 0.0881077901169
  y: 0.0
  z: 0.0
angular: 
  x: 0.0
  y: 0.0
  z: -0.188800293766
---
linear: 
  x: 0.104811038722
  y: 0.0
  z: 0.0
angular: 
  x: 0.0
  y: 0.0
  z: -0.193514212845
---
linear: 
  x: 0.104811038722
  y: 0.0
  z: 0.0
angular: 
  x: 0.0
  y: 0.0
  z: -0.193514212845
---
linear: 
  x: 0.0733776531153
  y: 0.0
  z: 0.0
angular: 
  x: 0.0
  y: 0.0
  z: -0.201854124709
---
linear: 
  x: 0.045730082792
  y: 0.0
  z: 0.0
angular: 
  x: 0.0
  y: 0.0
  z: -0.202524146993
---
linear: 
  x: 0.069402786176
  y: 0.0
  z: 0.0
angular: 
  x: 0.0
  y: 0.0
  z: -0.202106105644
---
linear: 
  x: 0.0879679046484
  y: 0.0
  z: 0.0
angular: 
  x: 0.0
  y: 0.0
  z: -0.200411457507
---
linear: 
  x: 0.0853984122607
  y: 0.0
  z: 0.0
angular: 
  x: 0.0
  y: 0.0
  z: -0.197858721569
---
linear: 
  x: 0.0866664040099
  y: 0.0
  z: 0.0
angular: 
  x: 0.0
  y: 0.0
  z: -0.199458555644
---
linear: 
  x: 0.0866664040099
  y: 0.0
  z: 0.0
angular: 
  x: 0.0
  y: 0.0
  z: -0.199458555644
---
linear: 
  x: 0.0839523572881
  y: 0.0
  z: 0.0
angular: 
  x: 0.0
  y: 0.0
  z: -0.200967213823
---
linear: 
  x: 0.0839523572881
  y: 0.0
  z: 0.0
angular: 
  x: 0.0
  y: 0.0
  z: -0.200967213823
---
linear: 
  x: 0.0739888193595
  y: 0.0
  z: 0.0
angular: 
  x: 0.0
  y: 0.0
  z: -0.193374041458
---
linear: 
  x: 0.0768587502416
  y: 0.0
  z: 0.0
angular: 
  x: 0.0
  y: 0.0
  z: -0.193191976001
---
linear: 
  x: 0.0768587502416
  y: 0.0
  z: 0.0
angular: 
  x: 0.0
  y: 0.0
  z: -0.193191976001
---
linear: 
  x: 0.0803611254149
  y: 0.0
  z: 0.0
angular: 
  x: 0.0
  y: 0.0
  z: -0.199399651806
---
linear: 
  x: 0.0725791440485
  y: 0.0
  z: 0.0
angular: 
  x: 0.0
  y: 0.0
  z: -0.198634209335
---
linear: 
  x: 0.0725791440485
  y: 0.0
  z: 0.0
angular: 
  x: 0.0
  y: 0.0
  z: -0.198634209335
---
linear: 
  x: 0.0732214421077
  y: 0.0
  z: 0.0
angular: 
  x: 0.0
  y: 0.0
  z: -0.190717818469
---
linear: 
  x: 0.0822486595448
  y: 0.0
  z: 0.0
angular: 
  x: 0.0
  y: 0.0
  z: -0.183496975283
---
linear: 
  x: 0.17309610535
  y: 0.0
  z: 0.0
angular: 
  x: 0.0
  y: 0.0
  z: -0.186816287573
---
linear: 
  x: 0.17309610535
  y: 0.0
  z: 0.0
angular: 
  x: 0.0
  y: 0.0
  z: -0.186816287573
---
linear: 
  x: 0.155074194737
  y: 0.0
  z: 0.0
angular: 
  x: 0.0
  y: 0.0
  z: -0.186577596561
---
linear: 
  x: 0.0731795398696
  y: 0.0
  z: 0.0
angular: 
  x: 0.0
  y: 0.0
  z: -0.180449876091
---
linear: 
  x: 0.0773613726082
  y: 0.0
  z: 0.0
angular: 
  x: 0.0
  y: 0.0
  z: -0.177146318054
---
linear: 
  x: 0.0890157474071
  y: 0.0
  z: 0.0
angular: 
  x: 0.0
  y: 0.0
  z: -0.174933806698
---
linear: 
  x: 0.0912109339445
  y: 0.0
  z: 0.0
angular: 
  x: 0.0
  y: 0.0
  z: -0.17326256166
---
linear: 
  x: 0.0771357588208
  y: 0.0
  z: 0.0
angular: 
  x: 0.0
  y: 0.0
  z: -0.17564889237
---
linear: 
  x: 0.0764739136138
  y: 0.0
  z: 0.0
angular: 
  x: 0.0
  y: 0.0
  z: -0.180458325962
---
linear: 
  x: 0.0749503810903
  y: 0.0
  z: 0.0
angular: 
  x: 0.0
  y: 0.0
  z: -0.17422303832
---
linear: 
  x: 0.0749503810903
  y: 0.0
  z: 0.0
angular: 
  x: 0.0
  y: 0.0
  z: -0.17422303832
---
linear: 
  x: 0.0787753197061
  y: 0.0
  z: 0.0
angular: 
  x: 0.0
  y: 0.0
  z: -0.12805941487
---
linear: 
  x: 0.0670911939583
  y: 0.0
  z: 0.0
angular: 
  x: 0.0
  y: 0.0
  z: -0.123995273441
---
linear: 
  x: 0.0687616883619
  y: 0.0
  z: 0.0
angular: 
  x: 0.0
  y: 0.0
  z: -0.167339394002
---
linear: 
  x: 0.0687616883619
  y: 0.0
  z: 0.0
angular: 
  x: 0.0
  y: 0.0
  z: -0.167339394002
---
linear: 
  x: 0.0781938158172
  y: 0.0
  z: 0.0
angular: 
  x: 0.0
  y: 0.0
  z: -0.176585607988
---
linear: 
  x: 0.069973994497
  y: 0.0
  z: 0.0
angular: 
  x: 0.0
  y: 0.0
  z: -0.122837868252
---
linear: 
  x: 0.069973994497
  y: 0.0
  z: 0.0
angular: 
  x: 0.0
  y: 0.0
  z: -0.122837868252
---
linear: 
  x: 0.0784788366731
  y: 0.0
  z: 0.0
angular: 
  x: 0.0
  y: 0.0
  z: -0.106004354892
---
linear: 
  x: 0.0782437585216
  y: 0.0
  z: 0.0
angular: 
  x: 0.0
  y: 0.0
  z: -0.126229736124
---
linear: 
  x: 0.0782437585216
  y: 0.0
  z: 0.0
angular: 
  x: 0.0
  y: 0.0
  z: -0.126229736124
---
linear: 
  x: 0.0818627085894
  y: 0.0
  z: 0.0
angular: 
  x: 0.0
  y: 0.0
  z: -0.165053398188
---
linear: 
  x: 0.0793260255674
  y: 0.0
  z: 0.0
angular: 
  x: 0.0
  y: 0.0
  z: -0.169191763195
---
linear: 
  x: 0.0793260255674
  y: 0.0
  z: 0.0
angular: 
  x: 0.0
  y: 0.0
  z: -0.169191763195
---
linear: 
  x: 0.0792210233425
  y: 0.0
  z: 0.0
angular: 
  x: 0.0
  y: 0.0
  z: -0.123098734936
---
linear: 
  x: 0.0792210233425
  y: 0.0
  z: 0.0
angular: 
  x: 0.0
  y: 0.0
  z: -0.123098734936
---
linear: 
  x: 0.0829131875275
  y: 0.0
  z: 0.0
angular: 
  x: 0.0
  y: 0.0
  z: -0.125936991386
---
linear: 
  x: 0.0968136195715
  y: 0.0
  z: 0.0
angular: 
  x: 0.0
  y: 0.0
  z: -0.124651013043
---
linear: 
  x: 0.120550409368
  y: 0.0
  z: 0.0
angular: 
  x: 0.0
  y: 0.0
  z: -0.124818382806
---
linear: 
  x: 0.120550409368
  y: 0.0
  z: 0.0
angular: 
  x: 0.0
  y: 0.0
  z: -0.124818382806
---
linear: 
  x: 0.0923293451243
  y: 0.0
  z: 0.0
angular: 
  x: 0.0
  y: 0.0
  z: -0.126136490542
---
linear: 
  x: 0.0654702145477
  y: 0.0
  z: 0.0
angular: 
  x: 0.0
  y: 0.0
  z: -0.124925390868
---
linear: 
  x: 0.0828412698815
  y: 0.0
  z: 0.0
angular: 
  x: 0.0
  y: 0.0
  z: -0.125795007568
---
linear: 
  x: 0.0828412698815
  y: 0.0
  z: 0.0
angular: 
  x: 0.0
  y: 0.0
  z: -0.125795007568
---
linear: 
  x: 0.0861482531261
  y: 0.0
  z: 0.0
angular: 
  x: 0.0
  y: 0.0
  z: -0.13094696786
---
linear: 
  x: 0.0861482531261
  y: 0.0
  z: 0.0
angular: 
  x: 0.0
  y: 0.0
  z: -0.13094696786
---
linear: 
  x: 0.0861482531261
  y: 0.0
  z: 0.0
angular: 
  x: 0.0
  y: 0.0
  z: -0.13094696786
---
linear: 
  x: 0.0827699779265
  y: 0.0
  z: 0.0
angular: 
  x: 0.0
  y: 0.0
  z: -0.145445348407
---
linear: 
  x: 0.0765266821339
  y: 0.0
  z: 0.0
angular: 
  x: 0.0
  y: 0.0
  z: -0.125990551123
---
linear: 
  x: 0.0623401073208
  y: 0.0
  z: 0.0
angular: 
  x: 0.0
  y: 0.0
  z: -0.123371281888
---
linear: 
  x: 0.057820224178
  y: 0.0
  z: 0.0
angular: 
  x: 0.0
  y: 0.0
  z: -0.125473052106
---
linear: 
  x: 0.0967853596543
  y: 0.0
  z: 0.0
angular: 
  x: 0.0
  y: 0.0
  z: -0.122870488102
---
linear: 
  x: 0.0865999297011
  y: 0.0
  z: 0.0
angular: 
  x: 0.0
  y: 0.0
  z: -0.125066663573
---
linear: 
  x: 0.0638858973859
  y: 0.0
  z: 0.0
angular: 
  x: 0.0
  y: 0.0
  z: -0.127640369003
---
linear: 
  x: 0.0638858973859
  y: 0.0
  z: 0.0
angular: 
  x: 0.0
  y: 0.0
  z: -0.127640369003
---
linear: 
  x: 0.085136277622
  y: 0.0
  z: 0.0
angular: 
  x: 0.0
  y: 0.0
  z: -0.126125629178
---
linear: 
  x: 0.0856867801866
  y: 0.0
  z: 0.0
angular: 
  x: 0.0
  y: 0.0
  z: -0.176066811527
---
linear: 
  x: 0.0856867801866
  y: 0.0
  z: 0.0
angular: 
  x: 0.0
  y: 0.0
  z: -0.176066811527
---
linear: 
  x: 0.0911317326366
  y: 0.0
  z: 0.0
angular: 
  x: 0.0
  y: 0.0
  z: -0.190418039694
---
linear: 
  x: 0.0951562367733
  y: 0.0
  z: 0.0
angular: 
  x: 0.0
  y: 0.0
  z: -0.190628707945
---
linear: 
  x: 0.105209248796
  y: 0.0
  z: 0.0
angular: 
  x: 0.0
  y: 0.0
  z: -0.186707133415
---
linear: 
  x: 0.113898656153
  y: 0.0
  z: 0.0
angular: 
  x: 0.0
  y: 0.0
  z: -0.189462365832
---
linear: 
  x: 0.114495441065
  y: 0.0
  z: 0.0
angular: 
  x: 0.0
  y: 0.0
  z: -0.189058277613
---
linear: 
  x: 0.088904476755
  y: 0.0
  z: 0.0
angular: 
  x: 0.0
  y: 0.0
  z: -0.191236114962
---
linear: 
  x: 0.088904476755
  y: 0.0
  z: 0.0
angular: 
  x: 0.0
  y: 0.0
  z: -0.191236114962
---
linear: 
  x: 0.105822286239
  y: 0.0
  z: 0.0
angular: 
  x: 0.0
  y: 0.0
  z: -0.127276728143
---
linear: 
  x: 0.0960203026676
  y: 0.0
  z: 0.0
angular: 
  x: 0.0
  y: 0.0
  z: -0.175517980461
---
linear: 
  x: 0.0636055130547
  y: 0.0
  z: 0.0
angular: 
  x: 0.0
  y: 0.0
  z: -0.175085275686
---
linear: 
  x: 0.0636055130547
  y: 0.0
  z: 0.0
angular: 
  x: 0.0
  y: 0.0
  z: -0.175085275686
---
linear: 
  x: 0.0932649382051
  y: 0.0
  z: 0.0
angular: 
  x: 0.0
  y: 0.0
  z: -0.200041706702
---
linear: 
  x: 0.0932649382051
  y: 0.0
  z: 0.0
angular: 
  x: 0.0
  y: 0.0
  z: -0.200041706702
---
linear: 
  x: 0.0852180965704
  y: 0.0
  z: 0.0
angular: 
  x: 0.0
  y: 0.0
  z: -0.198268959523
---
linear: 
  x: 0.078570821866
  y: 0.0
  z: 0.0
angular: 
  x: 0.0
  y: 0.0
  z: -0.199754995062
---
linear: 
  x: 0.154251574876
  y: 0.0
  z: 0.0
angular: 
  x: 0.0
  y: 0.0
  z: -0.220715319786
---
linear: 
  x: 0.155848442582
  y: 0.0
  z: 0.0
angular: 
  x: 0.0
  y: 0.0
  z: -0.226661433205
---
linear: 
  x: 0.0969941632232
  y: 0.0
  z: 0.0
angular: 
  x: 0.0
  y: 0.0
  z: -0.20199429235
---
linear: 
  x: 0.116818752001
  y: 0.0
  z: 0.0
angular: 
  x: 0.0
  y: 0.0
  z: -0.20402218278
---
linear: 
  x: 0.0732059515102
  y: 0.0
  z: 0.0
angular: 
  x: 0.0
  y: 0.0
  z: -0.19889384773
---
linear: 
  x: 0.0603588004127
  y: 0.0
  z: 0.0
angular: 
  x: 0.0
  y: 0.0
  z: -0.202971718499
---
linear: 
  x: 0.045423109533
  y: 0.0
  z: 0.0
angular: 
  x: 0.0
  y: 0.0
  z: -0.200858984376
---
linear: 
  x: 0.045423109533
  y: 0.0
  z: 0.0
angular: 
  x: 0.0
  y: 0.0
  z: -0.200858984376
---
linear: 
  x: 0.045423109533
  y: 0.0
  z: 0.0
angular: 
  x: 0.0
  y: 0.0
  z: -0.200858984376
---
linear: 
  x: 0.105124776017
  y: 0.0
  z: 0.0
angular: 
  x: 0.0
  y: 0.0
  z: -0.201642056157
---
linear: 
  x: 0.117185462917
  y: 0.0
  z: 0.0
angular: 
  x: 0.0
  y: 0.0
  z: -0.199689655702
---
linear: 
  x: 0.117185462917
  y: 0.0
  z: 0.0
angular: 
  x: 0.0
  y: 0.0
  z: -0.199689655702
---
linear: 
  x: 0.0589753831266
  y: 0.0
  z: 0.0
angular: 
  x: 0.0
  y: 0.0
  z: -0.202771050097
---
linear: 
  x: 0.0548845125887
  y: 0.0
  z: 0.0
angular: 
  x: 0.0
  y: 0.0
  z: -0.20368317747
---
linear: 
  x: 0.0730760794789
  y: 0.0
  z: 0.0
angular: 
  x: 0.0
  y: 0.0
  z: -0.203179805348
---
linear: 
  x: 0.0825108368126
  y: 0.0
  z: 0.0
angular: 
  x: 0.0
  y: 0.0
  z: -0.203280345222
---
linear: 
  x: 0.0864814105413
  y: 0.0
  z: 0.0
angular: 
  x: 0.0
  y: 0.0
  z: -0.204049675221
---
linear: 
  x: 0.09966845187
  y: 0.0
  z: 0.0
angular: 
  x: 0.0
  y: 0.0
  z: -0.201720624878
---
linear: 
  x: 0.0983109593503
  y: 0.0
  z: 0.0
angular: 
  x: 0.0
  y: 0.0
  z: -0.203526570471
---
linear: 
  x: 0.0845078538653
  y: 0.0
  z: 0.0
angular: 
  x: 0.0
  y: 0.0
  z: -0.208305770246
---
linear: 
  x: 0.0789523318738
  y: 0.0
  z: 0.0
angular: 
  x: 0.0
  y: 0.0
  z: -0.22071858457
---
linear: 
  x: 0.0789523318738
  y: 0.0
  z: 0.0
angular: 
  x: 0.0
  y: 0.0
  z: -0.22071858457
---
linear: 
  x: 0.120129770583
  y: 0.0
  z: 0.0
angular: 
  x: 0.0
  y: 0.0
  z: -0.238441450122
---
linear: 
  x: 0.129836933206
  y: 0.0
  z: 0.0
angular: 
  x: 0.0
  y: 0.0
  z: -0.235342303855
---
linear: 
  x: 0.0907519890733
  y: 0.0
  z: 0.0
angular: 
  x: 0.0
  y: 0.0
  z: -0.211569182344
---
linear: 
  x: 0.0820435378379
  y: 0.0
  z: 0.0
angular: 
  x: 0.0
  y: 0.0
  z: -0.229520916521
---
linear: 
  x: 0.0830625249191
  y: 0.0
  z: 0.0
angular: 
  x: 0.0
  y: 0.0
  z: -0.24075995169
---
linear: 
  x: 0.078989078273
  y: 0.0
  z: 0.0
angular: 
  x: 0.0
  y: 0.0
  z: -0.241315807756
---
linear: 
  x: 0.078989078273
  y: 0.0
  z: 0.0
angular: 
  x: 0.0
  y: 0.0
  z: -0.241315807756
---
linear: 
  x: 0.0761427362094
  y: 0.0
  z: 0.0
angular: 
  x: 0.0
  y: 0.0
  z: -0.236507528434
---
linear: 
  x: 0.0806907763211
  y: 0.0
  z: 0.0
angular: 
  x: 0.0
  y: 0.0
  z: -0.237598968186
---
linear: 
  x: 0.0841974969984
  y: 0.0
  z: 0.0
angular: 
  x: 0.0
  y: 0.0
  z: -0.241308360525
---
linear: 
  x: 0.0832219836984
  y: 0.0
  z: 0.0
angular: 
  x: 0.0
  y: 0.0
  z: -0.235367660616
---
linear: 
  x: 0.0844156879501
  y: 0.0
  z: 0.0
angular: 
  x: 0.0
  y: 0.0
  z: -0.22037107539
---
linear: 
  x: 0.0878224919755
  y: 0.0
  z: 0.0
angular: 
  x: 0.0
  y: 0.0
  z: -0.217642765469
---
linear: 
  x: 0.0759406387695
  y: 0.0
  z: 0.0
angular: 
  x: 0.0
  y: 0.0
  z: -0.222125097848
---
linear: 
  x: 0.0757413110952
  y: 0.0
  z: 0.0
angular: 
  x: 0.0
  y: 0.0
  z: -0.232642227703
---
linear: 
  x: 0.0900765865699
  y: 0.0
  z: 0.0
angular: 
  x: 0.0
  y: 0.0
  z: -0.240650993892
---
linear: 
  x: 0.0865765302948
  y: 0.0
  z: 0.0
angular: 
  x: 0.0
  y: 0.0
  z: -0.237642585154
---
linear: 
  x: 0.0854032178532
  y: 0.0
  z: 0.0
angular: 
  x: 0.0
  y: 0.0
  z: -0.238225761383
---
linear: 
  x: 0.0877105324644
  y: 0.0
  z: 0.0
angular: 
  x: 0.0
  y: 0.0
  z: -0.239849219537
---
linear: 
  x: 0.0877105324644
  y: 0.0
  z: 0.0
angular: 
  x: 0.0
  y: 0.0
  z: -0.239849219537
---
linear: 
  x: 0.0832721536373
  y: 0.0
  z: 0.0
angular: 
  x: 0.0
  y: 0.0
  z: -0.239325978111
---
linear: 
  x: 0.0791756054482
  y: 0.0
  z: 0.0
angular: 
  x: 0.0
  y: 0.0
  z: -0.239743156791
---
linear: 
  x: 0.102339429841
  y: 0.0
  z: 0.0
angular: 
  x: 0.0
  y: 0.0
  z: -0.2462993811
---
linear: 
  x: 0.107138979837
  y: 0.0
  z: 0.0
angular: 
  x: 0.0
  y: 0.0
  z: -0.244374575049
---
linear: 
  x: 0.0852671688245
  y: 0.0
  z: 0.0
angular: 
  x: 0.0
  y: 0.0
  z: -0.241503297074
---
linear: 
  x: 0.085546217361
  y: 0.0
  z: 0.0
angular: 
  x: 0.0
  y: 0.0
  z: -0.239595759029
---
linear: 
  x: 0.079441392991
  y: 0.0
  z: 0.0
angular: 
  x: 0.0
  y: 0.0
  z: -0.236900896836
---
linear: 
  x: 0.0765805537921
  y: 0.0
  z: 0.0
angular: 
  x: 0.0
  y: 0.0
  z: -0.243177097218
---
linear: 
  x: 0.0903109041118
  y: 0.0
  z: 0.0
angular: 
  x: 0.0
  y: 0.0
  z: -0.242943128095
---
linear: 
  x: 0.109748571351
  y: 0.0
  z: 0.0
angular: 
  x: 0.0
  y: 0.0
  z: -0.244576734211
---
linear: 
  x: 0.109748571351
  y: 0.0
  z: 0.0
angular: 
  x: 0.0
  y: 0.0
  z: -0.244576734211
---
linear: 
  x: 0.0842456697038
  y: 0.0
  z: 0.0
angular: 
  x: 0.0
  y: 0.0
  z: -0.241526853235
---
linear: 
  x: 0.0888955043495
  y: 0.0
  z: 0.0
angular: 
  x: 0.0
  y: 0.0
  z: -0.241202863011
---
linear: 
  x: 0.0888955043495
  y: 0.0
  z: 0.0
angular: 
  x: 0.0
  y: 0.0
  z: -0.241202863011
---
linear: 
  x: 0.0648221656949
  y: 0.0
  z: 0.0
angular: 
  x: 0.0
  y: 0.0
  z: -0.233033892045
---
linear: 
  x: 0.0677479388319
  y: 0.0
  z: 0.0
angular: 
  x: 0.0
  y: 0.0
  z: -0.228569939336
---
linear: 
  x: 0.0846163335117
  y: 0.0
  z: 0.0
angular: 
  x: 0.0
  y: 0.0
  z: -0.237692116244
---
linear: 
  x: 0.0772989441794
  y: 0.0
  z: 0.0
angular: 
  x: 0.0
  y: 0.0
  z: -0.235047102901
---
linear: 
  x: 0.0781384550131
  y: 0.0
  z: 0.0
angular: 
  x: 0.0
  y: 0.0
  z: -0.222988776157
---
linear: 
  x: 0.0781384550131
  y: 0.0
  z: 0.0
angular: 
  x: 0.0
  y: 0.0
  z: -0.222988776157
---
linear: 
  x: 0.0762467704318
  y: 0.0
  z: 0.0
angular: 
  x: 0.0
  y: 0.0
  z: -0.217918375926
---
linear: 
  x: 0.0693341343289
  y: 0.0
  z: 0.0
angular: 
  x: 0.0
  y: 0.0
  z: -0.229587643227
---
linear: 
  x: 0.0693341343289
  y: 0.0
  z: 0.0
angular: 
  x: 0.0
  y: 0.0
  z: -0.229587643227
---
linear: 
  x: 0.0554892741673
  y: 0.0
  z: 0.0
angular: 
  x: 0.0
  y: 0.0
  z: -0.221587457416
---
linear: 
  x: 0.0625009308877
  y: 0.0
  z: 0.0
angular: 
  x: 0.0
  y: 0.0
  z: -0.212611432204
---
linear: 
  x: 0.0615324336556
  y: 0.0
  z: 0.0
angular: 
  x: 0.0
  y: 0.0
  z: -0.204203345718
---
linear: 
  x: 0.0574982153015
  y: 0.0
  z: 0.0
angular: 
  x: 0.0
  y: 0.0
  z: -0.205759895338
---
linear: 
  x: 0.0600608889574
  y: 0.0
  z: 0.0
angular: 
  x: 0.0
  y: 0.0
  z: -0.221910121525
---
linear: 
  x: 0.0759165753307
  y: 0.0
  z: 0.0
angular: 
  x: 0.0
  y: 0.0
  z: -0.218095374478
---
linear: 
  x: 0.0708644785907
  y: 0.0
  z: 0.0
angular: 
  x: 0.0
  y: 0.0
  z: -0.204132067076
---
linear: 
  x: 0.0876556471099
  y: 0.0
  z: 0.0
angular: 
  x: 0.0
  y: 0.0
  z: -0.205275553636
---
linear: 
  x: 0.0786036423791
  y: 0.0
  z: 0.0
angular: 
  x: 0.0
  y: 0.0
  z: -0.203117247786
---
linear: 
  x: 0.0786036423791
  y: 0.0
  z: 0.0
angular: 
  x: 0.0
  y: 0.0
  z: -0.203117247786
---
linear: 
  x: 0.0666493053927
  y: 0.0
  z: 0.0
angular: 
  x: 0.0
  y: 0.0
  z: -0.202242025855
---
linear: 
  x: 0.0666493053927
  y: 0.0
  z: 0.0
angular: 
  x: 0.0
  y: 0.0
  z: -0.202242025855
---
linear: 
  x: 0.109052426841
  y: 0.0
  z: 0.0
angular: 
  x: 0.0
  y: 0.0
  z: -0.200989184871
---
linear: 
  x: 0.089406751928
  y: 0.0
  z: 0.0
angular: 
  x: 0.0
  y: 0.0
  z: -0.20288521788
---
linear: 
  x: 0.0548012740735
  y: 0.0
  z: 0.0
angular: 
  x: 0.0
  y: 0.0
  z: -0.196625772327
---
linear: 
  x: 0.0660581317691
  y: 0.0
  z: 0.0
angular: 
  x: 0.0
  y: 0.0
  z: -0.198176952667
---
linear: 
  x: 0.068315836874
  y: 0.0
  z: 0.0
angular: 
  x: 0.0
  y: 0.0
  z: -0.196913863723
---
linear: 
  x: 0.0722307274424
  y: 0.0
  z: 0.0
angular: 
  x: 0.0
  y: 0.0
  z: -0.197393134617
---
linear: 
  x: 0.0764116778224
  y: 0.0
  z: 0.0
angular: 
  x: 0.0
  y: 0.0
  z: -0.193836071204
---
linear: 
  x: 0.0764116778224
  y: 0.0
  z: 0.0
angular: 
  x: 0.0
  y: 0.0
  z: -0.193836071204
---
linear: 
  x: 0.0733411126706
  y: 0.0
  z: 0.0
angular: 
  x: 0.0
  y: 0.0
  z: -0.194813775486
---
linear: 
  x: 0.0484472767808
  y: 0.0
  z: 0.0
angular: 
  x: 0.0
  y: 0.0
  z: -0.183511818032
---
linear: 
  x: 0.0475676608076
  y: 0.0
  z: 0.0
angular: 
  x: 0.0
  y: 0.0
  z: -0.189360792836
---
linear: 
  x: 0.0469405761026
  y: 0.0
  z: 0.0
angular: 
  x: 0.0
  y: 0.0
  z: -0.197671364065
---
linear: 
  x: 0.0776791216987
  y: 0.0
  z: 0.0
angular: 
  x: 0.0
  y: 0.0
  z: -0.198906387854
---
linear: 
  x: 0.0750139665979
  y: 0.0
  z: 0.0
angular: 
  x: 0.0
  y: 0.0
  z: -0.194473488789
---
linear: 
  x: 0.0584054260072
  y: 0.0
  z: 0.0
angular: 
  x: 0.0
  y: 0.0
  z: -0.197911627266
---
linear: 
  x: 0.0720478780474
  y: 0.0
  z: 0.0
angular: 
  x: 0.0
  y: 0.0
  z: -0.201375791978
---
linear: 
  x: 0.0653435412704
  y: 0.0
  z: 0.0
angular: 
  x: 0.0
  y: 0.0
  z: -0.200386940291
---
linear: 
  x: 0.068159899264
  y: 0.0
  z: 0.0
angular: 
  x: 0.0
  y: 0.0
  z: -0.20279263169
---
linear: 
  x: 0.068159899264
  y: 0.0
  z: 0.0
angular: 
  x: 0.0
  y: 0.0
  z: -0.20279263169
---
linear: 
  x: 0.0747207337917
  y: 0.0
  z: 0.0
angular: 
  x: 0.0
  y: 0.0
  z: -0.201537668209
---
linear: 
  x: 0.0747207337917
  y: 0.0
  z: 0.0
angular: 
  x: 0.0
  y: 0.0
  z: -0.201537668209
---
linear: 
  x: 0.0747207337917
  y: 0.0
  z: 0.0
angular: 
  x: 0.0
  y: 0.0
  z: -0.201537668209
---
linear: 
  x: 0.0747207337917
  y: 0.0
  z: 0.0
angular: 
  x: 0.0
  y: 0.0
  z: -0.201537668209
---
linear: 
  x: 0.0733066173303
  y: 0.0
  z: 0.0
angular: 
  x: 0.0
  y: 0.0
  z: -0.200921633136
---
linear: 
  x: 0.0783424276125
  y: 0.0
  z: 0.0
angular: 
  x: 0.0
  y: 0.0
  z: -0.206276623529
---
linear: 
  x: 0.0987490502815
  y: 0.0
  z: 0.0
angular: 
  x: 0.0
  y: 0.0
  z: -0.236923452642
---
linear: 
  x: 0.0969316674069
  y: 0.0
  z: 0.0
angular: 
  x: 0.0
  y: 0.0
  z: -0.241436870696
---
linear: 
  x: 0.115663273924
  y: 0.0
  z: 0.0
angular: 
  x: 0.0
  y: 0.0
  z: -0.242824476942
---
linear: 
  x: 0.135738745041
  y: 0.0
  z: 0.0
angular: 
  x: 0.0
  y: 0.0
  z: -0.243722770821
---
linear: 
  x: 0.0987297054191
  y: 0.0
  z: 0.0
angular: 
  x: 0.0
  y: 0.0
  z: -0.238108298668
---
linear: 
  x: 0.088161662986
  y: 0.0
  z: 0.0
angular: 
  x: 0.0
  y: 0.0
  z: -0.222670393974
---
linear: 
  x: 0.088161662986
  y: 0.0
  z: 0.0
angular: 
  x: 0.0
  y: 0.0
  z: -0.222670393974
---
linear: 
  x: 0.088161662986
  y: 0.0
  z: 0.0
angular: 
  x: 0.0
  y: 0.0
  z: -0.222670393974
---
linear: 
  x: 0.103712546207
  y: 0.0
  z: 0.0
angular: 
  x: 0.0
  y: 0.0
  z: -0.220401848115
---
linear: 
  x: 0.106587373984
  y: 0.0
  z: 0.0
angular: 
  x: 0.0
  y: 0.0
  z: -0.214615963555
---
linear: 
  x: 0.110135752721
  y: 0.0
  z: 0.0
angular: 
  x: 0.0
  y: 0.0
  z: -0.202730906085
---
linear: 
  x: 0.123470200537
  y: 0.0
  z: 0.0
angular: 
  x: 0.0
  y: 0.0
  z: -0.200396336596
---
linear: 
  x: 0.123470200537
  y: 0.0
  z: 0.0
angular: 
  x: 0.0
  y: 0.0
  z: -0.200396336596
---
linear: 
  x: 0.113528008854
  y: 0.0
  z: 0.0
angular: 
  x: 0.0
  y: 0.0
  z: -0.217363415533
---
linear: 
  x: 0.105965206059
  y: 0.0
  z: 0.0
angular: 
  x: 0.0
  y: 0.0
  z: -0.228372030913
---
linear: 
  x: 0.105965206059
  y: 0.0
  z: 0.0
angular: 
  x: 0.0
  y: 0.0
  z: -0.228372030913
---
linear: 
  x: 0.0954185449768
  y: 0.0
  z: 0.0
angular: 
  x: 0.0
  y: 0.0
  z: -0.219087108348
---
linear: 
  x: 0.0954185449768
  y: 0.0
  z: 0.0
angular: 
  x: 0.0
  y: 0.0
  z: -0.219087108348
---
linear: 
  x: 0.134359803057
  y: 0.0
  z: 0.0
angular: 
  x: 0.0
  y: 0.0
  z: -0.225554563986
---
linear: 
  x: 0.107567490376
  y: 0.0
  z: 0.0
angular: 
  x: 0.0
  y: 0.0
  z: -0.215187347951
---
linear: 
  x: 0.113028177252
  y: 0.0
  z: 0.0
angular: 
  x: 0.0
  y: 0.0
  z: -0.215317451342
---
linear: 
  x: 0.147681725285
  y: 0.0
  z: 0.0
angular: 
  x: 0.0
  y: 0.0
  z: -0.212424908157
---
linear: 
  x: 0.106385520123
  y: 0.0
  z: 0.0
angular: 
  x: 0.0
  y: 0.0
  z: -0.201119912809
---
linear: 
  x: 0.106385520123
  y: 0.0
  z: 0.0
angular: 
  x: 0.0
  y: 0.0
  z: -0.201119912809
---
linear: 
  x: 0.134302812374
  y: 0.0
  z: 0.0
angular: 
  x: 0.0
  y: 0.0
  z: -0.200616289973
---
linear: 
  x: 0.0825393559578
  y: 0.0
  z: 0.0
angular: 
  x: 0.0
  y: 0.0
  z: -0.203421896799
---
linear: 
  x: 0.0773470579223
  y: 0.0
  z: 0.0
angular: 
  x: 0.0
  y: 0.0
  z: -0.239637720458
---
linear: 
  x: 0.0773470579223
  y: 0.0
  z: 0.0
angular: 
  x: 0.0
  y: 0.0
  z: -0.239637720458
---
linear: 
  x: 0.0909542188216
  y: 0.0
  z: 0.0
angular: 
  x: 0.0
  y: 0.0
  z: -0.247658060318
---
linear: 
  x: 0.0994642875339
  y: 0.0
  z: 0.0
angular: 
  x: 0.0
  y: 0.0
  z: -0.247597990677
---
linear: 
  x: 0.0994642875339
  y: 0.0
  z: 0.0
angular: 
  x: 0.0
  y: 0.0
  z: -0.247597990677
---
linear: 
  x: 0.0965960457092
  y: 0.0
  z: 0.0
angular: 
  x: 0.0
  y: 0.0
  z: -0.247849401343
---
linear: 
  x: 0.1056495567
  y: 0.0
  z: 0.0
angular: 
  x: 0.0
  y: 0.0
  z: -0.245098798009
---
linear: 
  x: 0.1056495567
  y: 0.0
  z: 0.0
angular: 
  x: 0.0
  y: 0.0
  z: -0.245098798009
---
linear: 
  x: 0.108625617482
  y: 0.0
  z: 0.0
angular: 
  x: 0.0
  y: 0.0
  z: -0.243285640774
---
linear: 
  x: 0.0892049415746
  y: 0.0
  z: 0.0
angular: 
  x: 0.0
  y: 0.0
  z: -0.241079450362
---
linear: 
  x: 0.0865049005347
  y: 0.0
  z: 0.0
angular: 
  x: 0.0
  y: 0.0
  z: -0.242055556772
---
linear: 
  x: 0.0919485787468
  y: 0.0
  z: 0.0
angular: 
  x: 0.0
  y: 0.0
  z: -0.244549526267
---
linear: 
  x: 0.0941685106555
  y: 0.0
  z: 0.0
angular: 
  x: 0.0
  y: 0.0
  z: -0.249544277891
---
linear: 
  x: 0.0941685106555
  y: 0.0
  z: 0.0
angular: 
  x: 0.0
  y: 0.0
  z: -0.249544277891
---
linear: 
  x: 0.109885110921
  y: 0.0
  z: 0.0
angular: 
  x: 0.0
  y: 0.0
  z: -0.254522764108
---
linear: 
  x: 0.108953458141
  y: 0.0
  z: 0.0
angular: 
  x: 0.0
  y: 0.0
  z: -0.252732609926
---
linear: 
  x: 0.0796024232992
  y: 0.0
  z: 0.0
angular: 
  x: 0.0
  y: 0.0
  z: -0.250297877104
---
linear: 
  x: 0.0745318914391
  y: 0.0
  z: 0.0
angular: 
  x: 0.0
  y: 0.0
  z: -0.251095109987
---
linear: 
  x: 0.0922584797194
  y: 0.0
  z: 0.0
angular: 
  x: 0.0
  y: 0.0
  z: -0.268256437612
---
linear: 
  x: 0.0912327056032
  y: 0.0
  z: 0.0
angular: 
  x: 0.0
  y: 0.0
  z: -0.28240349677
---
linear: 
  x: 0.0776503378102
  y: 0.0
  z: 0.0
angular: 
  x: 0.0
  y: 0.0
  z: -0.285092429742
---
linear: 
  x: 0.0810408335624
  y: 0.0
  z: 0.0
angular: 
  x: 0.0
  y: 0.0
  z: -0.278037990359
---
linear: 
  x: 0.0912967808561
  y: 0.0
  z: 0.0
angular: 
  x: 0.0
  y: 0.0
  z: -0.279679097979
---
linear: 
  x: 0.0796597622551
  y: 0.0
  z: 0.0
angular: 
  x: 0.0
  y: 0.0
  z: -0.281605696117
---
linear: 
  x: 0.0761163067618
  y: 0.0
  z: 0.0
angular: 
  x: 0.0
  y: 0.0
  z: -0.282713871527
---
linear: 
  x: 0.0752413502149
  y: 0.0
  z: 0.0
angular: 
  x: 0.0
  y: 0.0
  z: -0.281810241357
---
linear: 
  x: 0.0785597071684
  y: 0.0
  z: 0.0
angular: 
  x: 0.0
  y: 0.0
  z: -0.28043169006
---
linear: 
  x: 0.0785597071684
  y: 0.0
  z: 0.0
angular: 
  x: 0.0
  y: 0.0
  z: -0.28043169006
---
linear: 
  x: 0.0891064573319
  y: 0.0
  z: 0.0
angular: 
  x: 0.0
  y: 0.0
  z: -0.292084804156
---
linear: 
  x: 0.0744831434474
  y: 0.0
  z: 0.0
angular: 
  x: 0.0
  y: 0.0
  z: -0.287161892978
---
linear: 
  x: 0.0602416868697
  y: 0.0
  z: 0.0
angular: 
  x: 0.0
  y: 0.0
  z: -0.287886588942
---
linear: 
  x: 0.0602416868697
  y: 0.0
  z: 0.0
angular: 
  x: 0.0
  y: 0.0
  z: -0.287886588942
---
linear: 
  x: 0.0827948988736
  y: 0.0
  z: 0.0
angular: 
  x: 0.0
  y: 0.0
  z: -0.282886462731
---
linear: 
  x: 0.0917790849156
  y: 0.0
  z: 0.0
angular: 
  x: 0.0
  y: 0.0
  z: -0.29589780394
---
linear: 
  x: 0.0917385886977
  y: 0.0
  z: 0.0
angular: 
  x: 0.0
  y: 0.0
  z: -0.296031984715
---
linear: 
  x: 0.062628833501
  y: 0.0
  z: 0.0
angular: 
  x: 0.0
  y: 0.0
  z: 0.3
---
linear: 
  x: 0.0604449358865
  y: 0.0
  z: 0.0
angular: 
  x: 0.0
  y: 0.0
  z: 0.3
---
linear: 
  x: 0.0642592832841
  y: 0.0
  z: 0.0
angular: 
  x: 0.0
  y: 0.0
  z: -0.294979826258
---
linear: 
  x: 0.0642592832841
  y: 0.0
  z: 0.0
angular: 
  x: 0.0
  y: 0.0
  z: -0.294979826258
---
linear: 
  x: 0.0621722524746
  y: 0.0
  z: 0.0
angular: 
  x: 0.0
  y: 0.0
  z: 0.3
---
linear: 
  x: 0.0576822070217
  y: 0.0
  z: 0.0
angular: 
  x: 0.0
  y: 0.0
  z: 0.3
---
linear: 
  x: 0.0576822070217
  y: 0.0
  z: 0.0
angular: 
  x: 0.0
  y: 0.0
  z: 0.3
---
linear: 
  x: 0.0450034634742
  y: 0.0
  z: 0.0
angular: 
  x: 0.0
  y: 0.0
  z: 0.3
---
linear: 
  x: 0.0506869061619
  y: 0.0
  z: 0.0
angular: 
  x: 0.0
  y: 0.0
  z: 0.3
---
linear: 
  x: 0.0554421107557
  y: 0.0
  z: 0.0
angular: 
  x: 0.0
  y: 0.0
  z: 0.3
---
linear: 
  x: 0.0531378045418
  y: 0.0
  z: 0.0
angular: 
  x: 0.0
  y: 0.0
  z: 0.3
---
linear: 
  x: 0.0671055009946
  y: 0.0
  z: 0.0
angular: 
  x: 0.0
  y: 0.0
  z: 0.3
---
linear: 
  x: 0.0671055009946
  y: 0.0
  z: 0.0
angular: 
  x: 0.0
  y: 0.0
  z: 0.3
---
linear: 
  x: 0.0499216530777
  y: 0.0
  z: 0.0
angular: 
  x: 0.0
  y: 0.0
  z: 0.3
---
linear: 
  x: 0.0499216530777
  y: 0.0
  z: 0.0
angular: 
  x: 0.0
  y: 0.0
  z: 0.3
---
linear: 
  x: 0.0499707083389
  y: 0.0
  z: 0.0
angular: 
  x: 0.0
  y: 0.0
  z: 0.3
---
linear: 
  x: 0.060275778392
  y: 0.0
  z: 0.0
angular: 
  x: 0.0
  y: 0.0
  z: 0.3
---
linear: 
  x: 0.0569411152403
  y: 0.0
  z: 0.0
angular: 
  x: 0.0
  y: 0.0
  z: 0.3
---
linear: 
  x: 0.0458922313302
  y: 0.0
  z: 0.0
angular: 
  x: 0.0
  y: 0.0
  z: 0.3
---
linear: 
  x: 0.045069085128
  y: 0.0
  z: 0.0
angular: 
  x: 0.0
  y: 0.0
  z: 0.3
---
linear: 
  x: 0.0349519428241
  y: 0.0
  z: 0.0
angular: 
  x: 0.0
  y: 0.0
  z: 0.3
---
linear: 
  x: 0.0328704469248
  y: 0.0
  z: 0.0
angular: 
  x: 0.0
  y: 0.0
  z: 0.3
---
linear: 
  x: 0.0382511250849
  y: 0.0
  z: 0.0
angular: 
  x: 0.0
  y: 0.0
  z: 0.3
---
linear: 
  x: 0.0402425295358
  y: 0.0
  z: 0.0
angular: 
  x: 0.0
  y: 0.0
  z: 0.3
---
linear: 
  x: 0.0296918270333
  y: 0.0
  z: 0.0
angular: 
  x: 0.0
  y: 0.0
  z: 0.3
---
linear: 
  x: 0.0264044320312
  y: 0.0
  z: 0.0
angular: 
  x: 0.0
  y: 0.0
  z: 0.3
---
linear: 
  x: 0.0264044320312
  y: 0.0
  z: 0.0
angular: 
  x: 0.0
  y: 0.0
  z: 0.3
---
linear: 
  x: 0.0327928261321
  y: 0.0
  z: 0.0
angular: 
  x: 0.0
  y: 0.0
  z: 0.3
---
linear: 
  x: 0.0305970381667
  y: 0.0
  z: 0.0
angular: 
  x: 0.0
  y: 0.0
  z: 0.3
---
linear: 
  x: 0.0316383958734
  y: 0.0
  z: 0.0
angular: 
  x: 0.0
  y: 0.0
  z: 0.3
---
linear: 
  x: 0.0290672914673
  y: 0.0
  z: 0.0
angular: 
  x: 0.0
  y: 0.0
  z: 0.3
---
linear: 
  x: 0.0281172256543
  y: 0.0
  z: 0.0
angular: 
  x: 0.0
  y: 0.0
  z: 0.3
---
linear: 
  x: 0.0251648916655
  y: 0.0
  z: 0.0
angular: 
  x: 0.0
  y: 0.0
  z: 0.3
---
linear: 
  x: 0.0401880781183
  y: 0.0
  z: 0.0
angular: 
  x: 0.0
  y: 0.0
  z: 0.3
---
linear: 
  x: 0.0440530424272
  y: 0.0
  z: 0.0
angular: 
  x: 0.0
  y: 0.0
  z: 0.3
---
linear: 
  x: 0.0413709318191
  y: 0.0
  z: 0.0
angular: 
  x: 0.0
  y: 0.0
  z: 0.3
---
linear: 
  x: 0.0413709318191
  y: 0.0
  z: 0.0
angular: 
  x: 0.0
  y: 0.0
  z: 0.3
---
linear: 
  x: 0.0413709318191
  y: 0.0
  z: 0.0
angular: 
  x: 0.0
  y: 0.0
  z: 0.3
---
linear: 
  x: 0.0413709318191
  y: 0.0
  z: 0.0
angular: 
  x: 0.0
  y: 0.0
  z: 0.3
---
linear: 
  x: 0.0376860338796
  y: 0.0
  z: 0.0
angular: 
  x: 0.0
  y: 0.0
  z: 0.3
---
linear: 
  x: 0.0449692177874
  y: 0.0
  z: 0.0
angular: 
  x: 0.0
  y: 0.0
  z: 0.3
---
linear: 
  x: 0.0388624315648
  y: 0.0
  z: 0.0
angular: 
  x: 0.0
  y: 0.0
  z: 0.3
---
linear: 
  x: 0.0392680575892
  y: 0.0
  z: 0.0
angular: 
  x: 0.0
  y: 0.0
  z: 0.3
---
linear: 
  x: 0.0381684318198
  y: 0.0
  z: 0.0
angular: 
  x: 0.0
  y: 0.0
  z: 0.3
---
linear: 
  x: 0.0401426505314
  y: 0.0
  z: 0.0
angular: 
  x: 0.0
  y: 0.0
  z: 0.3
---
linear: 
  x: 0.0370767630397
  y: 0.0
  z: 0.0
angular: 
  x: 0.0
  y: 0.0
  z: 0.3
---
linear: 
  x: 0.0311725352823
  y: 0.0
  z: 0.0
angular: 
  x: 0.0
  y: 0.0
  z: 0.3
---
linear: 
  x: 0.0373438009114
  y: 0.0
  z: 0.0
angular: 
  x: 0.0
  y: 0.0
  z: 0.3
---
linear: 
  x: 0.0314082481872
  y: 0.0
  z: 0.0
angular: 
  x: 0.0
  y: 0.0
  z: 0.3
---
linear: 
  x: 0.0363024805346
  y: 0.0
  z: 0.0
angular: 
  x: 0.0
  y: 0.0
  z: 0.3
---
linear: 
  x: 0.0529352608254
  y: 0.0
  z: 0.0
angular: 
  x: 0.0
  y: 0.0
  z: 0.3
---
linear: 
  x: 0.0529352608254
  y: 0.0
  z: 0.0
angular: 
  x: 0.0
  y: 0.0
  z: 0.3
---
linear: 
  x: 0.0514814622097
  y: 0.0
  z: 0.0
angular: 
  x: 0.0
  y: 0.0
  z: 0.3
---
linear: 
  x: 0.0442729755766
  y: 0.0
  z: 0.0
angular: 
  x: 0.0
  y: 0.0
  z: 0.3
---
linear: 
  x: 0.0588079907272
  y: 0.0
  z: 0.0
angular: 
  x: 0.0
  y: 0.0
  z: 0.3
---
linear: 
  x: 0.0588079907272
  y: 0.0
  z: 0.0
angular: 
  x: 0.0
  y: 0.0
  z: 0.3
---
linear: 
  x: 0.0506487479817
  y: 0.0
  z: 0.0
angular: 
  x: 0.0
  y: 0.0
  z: 0.3
---
linear: 
  x: 0.0339105906943
  y: 0.0
  z: 0.0
angular: 
  x: 0.0
  y: 0.0
  z: 0.3
---
linear: 
  x: 0.0326550426699
  y: 0.0
  z: 0.0
angular: 
  x: 0.0
  y: 0.0
  z: 0.3
---
linear: 
  x: 0.0381636292594
  y: 0.0
  z: 0.0
angular: 
  x: 0.0
  y: 0.0
  z: 0.3
---
linear: 
  x: 0.0460700049986
  y: 0.0
  z: 0.0
angular: 
  x: 0.0
  y: 0.0
  z: 0.3
---
linear: 
  x: 0.0473556413849
  y: 0.0
  z: 0.0
angular: 
  x: 0.0
  y: 0.0
  z: 0.3
---
linear: 
  x: 0.0429090858365
  y: 0.0
  z: 0.0
angular: 
  x: 0.0
  y: 0.0
  z: 0.3
---
linear: 
  x: 0.0473669953879
  y: 0.0
  z: 0.0
angular: 
  x: 0.0
  y: 0.0
  z: 0.3
---
linear: 
  x: 0.0397917988788
  y: 0.0
  z: 0.0
angular: 
  x: 0.0
  y: 0.0
  z: 0.3
---
linear: 
  x: 0.0358428229214
  y: 0.0
  z: 0.0
angular: 
  x: 0.0
  y: 0.0
  z: 0.3
---
linear: 
  x: 0.0428650425544
  y: 0.0
  z: 0.0
angular: 
  x: 0.0
  y: 0.0
  z: 0.3
---
linear: 
  x: 0.0451761401948
  y: 0.0
  z: 0.0
angular: 
  x: 0.0
  y: 0.0
  z: 0.3
---
linear: 
  x: 0.0419141398139
  y: 0.0
  z: 0.0
angular: 
  x: 0.0
  y: 0.0
  z: 0.3
---
linear: 
  x: 0.0434600481644
  y: 0.0
  z: 0.0
angular: 
  x: 0.0
  y: 0.0
  z: 0.3
---
linear: 
  x: 0.0461092340132
  y: 0.0
  z: 0.0
angular: 
  x: 0.0
  y: 0.0
  z: 0.3
---
linear: 
  x: 0.0461092340132
  y: 0.0
  z: 0.0
angular: 
  x: 0.0
  y: 0.0
  z: 0.3
---
linear: 
  x: 0.0398249377305
  y: 0.0
  z: 0.0
angular: 
  x: 0.0
  y: 0.0
  z: 0.3
---
linear: 
  x: 0.0398249377305
  y: 0.0
  z: 0.0
angular: 
  x: 0.0
  y: 0.0
  z: 0.3
---
linear: 
  x: 0.0438875054343
  y: 0.0
  z: 0.0
angular: 
  x: 0.0
  y: 0.0
  z: 0.3
---
linear: 
  x: 0.0342645096528
  y: 0.0
  z: 0.0
angular: 
  x: 0.0
  y: 0.0
  z: 0.3
---
linear: 
  x: 0.0346794322088
  y: 0.0
  z: 0.0
angular: 
  x: 0.0
  y: 0.0
  z: 0.3
---
linear: 
  x: 0.0341366279552
  y: 0.0
  z: 0.0
angular: 
  x: 0.0
  y: 0.0
  z: 0.3
---
linear: 
  x: 0.0326620068274
  y: 0.0
  z: 0.0
angular: 
  x: 0.0
  y: 0.0
  z: 0.3
---
linear: 
  x: 0.0326620068274
  y: 0.0
  z: 0.0
angular: 
  x: 0.0
  y: 0.0
  z: 0.3
---
linear: 
  x: 0.0346721141459
  y: 0.0
  z: 0.0
angular: 
  x: 0.0
  y: 0.0
  z: 0.3
---
linear: 
  x: 0.0346721141459
  y: 0.0
  z: 0.0
angular: 
  x: 0.0
  y: 0.0
  z: 0.3
---
linear: 
  x: 0.0363869006217
  y: 0.0
  z: 0.0
angular: 
  x: 0.0
  y: 0.0
  z: 0.3
---
linear: 
  x: 0.0616617473135
  y: 0.0
  z: 0.0
angular: 
  x: 0.0
  y: 0.0
  z: 0.3
---
linear: 
  x: 0.0616617473135
  y: 0.0
  z: 0.0
angular: 
  x: 0.0
  y: 0.0
  z: 0.3
---
linear: 
  x: 0.0616617473135
  y: 0.0
  z: 0.0
angular: 
  x: 0.0
  y: 0.0
  z: 0.3
---
linear: 
  x: 0.0314237821859
  y: 0.0
  z: 0.0
angular: 
  x: 0.0
  y: 0.0
  z: 0.3
---
linear: 
  x: 0.0360972489189
  y: 0.0
  z: 0.0
angular: 
  x: 0.0
  y: 0.0
  z: 0.3
---
linear: 
  x: 0.0395581903972
  y: 0.0
  z: 0.0
angular: 
  x: 0.0
  y: 0.0
  z: 0.3
---
linear: 
  x: 0.0352427936356
  y: 0.0
  z: 0.0
angular: 
  x: 0.0
  y: 0.0
  z: 0.3
---
linear: 
  x: 0.0375290206798
  y: 0.0
  z: 0.0
angular: 
  x: 0.0
  y: 0.0
  z: 0.3
---
linear: 
  x: 0.0312720774429
  y: 0.0
  z: 0.0
angular: 
  x: 0.0
  y: 0.0
  z: 0.3
---
linear: 
  x: 0.0285081741855
  y: 0.0
  z: 0.0
angular: 
  x: 0.0
  y: 0.0
  z: 0.3
---
linear: 
  x: 0.0332605255826
  y: 0.0
  z: 0.0
angular: 
  x: 0.0
  y: 0.0
  z: 0.3
---
linear: 
  x: 0.0338973656628
  y: 0.0
  z: 0.0
angular: 
  x: 0.0
  y: 0.0
  z: 0.3
---
linear: 
  x: 0.0352305941537
  y: 0.0
  z: 0.0
angular: 
  x: 0.0
  y: 0.0
  z: 0.3
---
linear: 
  x: 0.0395621128368
  y: 0.0
  z: 0.0
angular: 
  x: 0.0
  y: 0.0
  z: 0.3
---
linear: 
  x: 0.0392714306261
  y: 0.0
  z: 0.0
angular: 
  x: 0.0
  y: 0.0
  z: 0.3
---
linear: 
  x: 0.03397268786
  y: 0.0
  z: 0.0
angular: 
  x: 0.0
  y: 0.0
  z: 0.3
---
linear: 
  x: 0.03397268786
  y: 0.0
  z: 0.0
angular: 
  x: 0.0
  y: 0.0
  z: 0.3
---
linear: 
  x: 0.0402458406342
  y: 0.0
  z: 0.0
angular: 
  x: 0.0
  y: 0.0
  z: -0.299255741538
---
linear: 
  x: 0.0442282443819
  y: 0.0
  z: 0.0
angular: 
  x: 0.0
  y: 0.0
  z: -0.290176258075
---
linear: 
  x: 0.0370037496609
  y: 0.0
  z: 0.0
angular: 
  x: 0.0
  y: 0.0
  z: -0.28207878278
---
linear: 
  x: 0.0329270157484
  y: 0.0
  z: 0.0
angular: 
  x: 0.0
  y: 0.0
  z: -0.280518423776
---
linear: 
  x: 0.0325477773338
  y: 0.0
  z: 0.0
angular: 
  x: 0.0
  y: 0.0
  z: -0.284765755962
---
linear: 
  x: 0.0307953795182
  y: 0.0
  z: 0.0
angular: 
  x: 0.0
  y: 0.0
  z: -0.28144630713
---
linear: 
  x: 0.0307953795182
  y: 0.0
  z: 0.0
angular: 
  x: 0.0
  y: 0.0
  z: -0.28144630713
---
linear: 
  x: 0.0321561333766
  y: 0.0
  z: 0.0
angular: 
  x: 0.0
  y: 0.0
  z: -0.2718514385
---
linear: 
  x: 0.0314802959495
  y: 0.0
  z: 0.0
angular: 
  x: 0.0
  y: 0.0
  z: -0.26636159912
---
linear: 
  x: 0.0
  y: 0.0
  z: 0.0
angular: 
  x: 0.0
  y: 0.0
  z: -0.3
---
linear: 
  x: 0.0292575389253
  y: 0.0
  z: 0.0
angular: 
  x: 0.0
  y: 0.0
  z: -0.259311354834
---
linear: 
  x: 0.034213080079
  y: 0.0
  z: 0.0
angular: 
  x: 0.0
  y: 0.0
  z: -0.259390964185
---
linear: 
  x: 0.034213080079
  y: 0.0
  z: 0.0
angular: 
  x: 0.0
  y: 0.0
  z: -0.259390964185
---
linear: 
  x: 0.0665812392458
  y: 0.0
  z: 0.0
angular: 
  x: 0.0
  y: 0.0
  z: -0.259107870067
---
linear: 
  x: 0.0655932474787
  y: 0.0
  z: 0.0
angular: 
  x: 0.0
  y: 0.0
  z: -0.254402488563
---
linear: 
  x: 0.0314477536254
  y: 0.0
  z: 0.0
angular: 
  x: 0.0
  y: 0.0
  z: -0.243122668
---
linear: 
  x: 0.0
  y: 0.0
  z: 0.0
angular: 
  x: 0.0
  y: 0.0
  z: -0.3
---
linear: 
  x: 0.0
  y: 0.0
  z: 0.0
angular: 
  x: 0.0
  y: 0.0
  z: -0.3
---
linear: 
  x: 0.0
  y: 0.0
  z: 0.0
angular: 
  x: 0.0
  y: 0.0
  z: -0.3
---
linear: 
  x: 0.0470789840743
  y: 0.0
  z: 0.0
angular: 
  x: 0.0
  y: 0.0
  z: -0.204424236172
---
linear: 
  x: 0.0470789840743
  y: 0.0
  z: 0.0
angular: 
  x: 0.0
  y: 0.0
  z: -0.204424236172
---
linear: 
  x: 0.0604637108759
  y: 0.0
  z: 0.0
angular: 
  x: 0.0
  y: 0.0
  z: -0.196457105842
---
linear: 
  x: 0.048824209461
  y: 0.0
  z: 0.0
angular: 
  x: 0.0
  y: 0.0
  z: -0.177160147591
---
linear: 
  x: 0.0402285202319
  y: 0.0
  z: 0.0
angular: 
  x: 0.0
  y: 0.0
  z: -0.182224961495
---
linear: 
  x: 0.0596912562523
  y: 0.0
  z: 0.0
angular: 
  x: 0.0
  y: 0.0
  z: -0.191482538854
---
linear: 
  x: 0.0360004660973
  y: 0.0
  z: 0.0
angular: 
  x: 0.0
  y: 0.0
  z: -0.186692147385
---
linear: 
  x: 0.0
  y: 0.0
  z: 0.0
angular: 
  x: 0.0
  y: 0.0
  z: -0.3
---
linear: 
  x: 0.0
  y: 0.0
  z: 0.0
angular: 
  x: 0.0
  y: 0.0
  z: -0.3
---
linear: 
  x: 0.0
  y: 0.0
  z: 0.0
angular: 
  x: 0.0
  y: 0.0
  z: -0.3
---
linear: 
  x: 0.0
  y: 0.0
  z: 0.0
angular: 
  x: 0.0
  y: 0.0
  z: -0.3
---
linear: 
  x: 0.0
  y: 0.0
  z: 0.0
angular: 
  x: 0.0
  y: 0.0
  z: -0.3
---
linear: 
  x: 0.043092407706
  y: 0.0
  z: 0.0
angular: 
  x: 0.0
  y: 0.0
  z: -0.178283351089
---
linear: 
  x: 0.043092407706
  y: 0.0
  z: 0.0
angular: 
  x: 0.0
  y: 0.0
  z: -0.178283351089
---
linear: 
  x: 0.064155326985
  y: 0.0
  z: 0.0
angular: 
  x: 0.0
  y: 0.0
  z: -0.175383056255
---
linear: 
  x: 0.0
  y: 0.0
  z: 0.0
angular: 
  x: 0.0
  y: 0.0
  z: -0.3
---
linear: 
  x: 0.0
  y: 0.0
  z: 0.0
angular: 
  x: 0.0
  y: 0.0
  z: -0.3
---
linear: 
  x: 0.0
  y: 0.0
  z: 0.0
angular: 
  x: 0.0
  y: 0.0
  z: -0.3
---
linear: 
  x: 0.0394562102612
  y: 0.0
  z: 0.0
angular: 
  x: 0.0
  y: 0.0
  z: -0.181378052869
---
linear: 
  x: 0.0405918384304
  y: 0.0
  z: 0.0
angular: 
  x: 0.0
  y: 0.0
  z: -0.187852549759
---
linear: 
  x: 0.0404496256915
  y: 0.0
  z: 0.0
angular: 
  x: 0.0
  y: 0.0
  z: -0.188409543219
---
linear: 
  x: 0.0
  y: 0.0
  z: 0.0
angular: 
  x: 0.0
  y: 0.0
  z: -0.3
---
linear: 
  x: 0.0
  y: 0.0
  z: 0.0
angular: 
  x: 0.0
  y: 0.0
  z: -0.3
---
linear: 
  x: 0.0872475120825
  y: 0.0
  z: 0.0
angular: 
  x: 0.0
  y: 0.0
  z: -0.182202846948
---
linear: 
  x: 0.0
  y: 0.0
  z: 0.0
angular: 
  x: 0.0
  y: 0.0
  z: -0.3
---
linear: 
  x: 0.0
  y: 0.0
  z: 0.0
angular: 
  x: 0.0
  y: 0.0
  z: -0.3
---
linear: 
  x: 0.043917418214
  y: 0.0
  z: 0.0
angular: 
  x: 0.0
  y: 0.0
  z: -0.124760956298
---
linear: 
  x: 0.0
  y: 0.0
  z: 0.0
angular: 
  x: 0.0
  y: 0.0
  z: -0.286971681919
---
linear: 
  x: 0.0
  y: 0.0
  z: 0.0
angular: 
  x: 0.0
  y: 0.0
  z: -0.291246809385
---
linear: 
  x: 0.0677954918424
  y: 0.0
  z: 0.0
angular: 
  x: 0.0
  y: 0.0
  z: -0.105481346014
---
linear: 
  x: 0.0748428789193
  y: 0.0
  z: 0.0
angular: 
  x: 0.0
  y: 0.0
  z: -0.0651485024757
---
linear: 
  x: 0.0748428789193
  y: 0.0
  z: 0.0
angular: 
  x: 0.0
  y: 0.0
  z: -0.0651485024757
---
linear: 
  x: 0.0
  y: 0.0
  z: 0.0
angular: 
  x: 0.0
  y: 0.0
  z: -0.159930348824
---
linear: 
  x: 0.0873293847819
  y: 0.0
  z: 0.0
angular: 
  x: 0.0
  y: 0.0
  z: -0.00721852278946
---
linear: 
  x: 0.0873293847819
  y: 0.0
  z: 0.0
angular: 
  x: 0.0
  y: 0.0
  z: -0.00721852278946
---
linear: 
  x: 0.0678981072678
  y: 0.0
  z: 0.0
angular: 
  x: 0.0
  y: 0.0
  z: -0.00651706267315
---
linear: 
  x: 0.0678981072678
  y: 0.0
  z: 0.0
angular: 
  x: 0.0
  y: 0.0
  z: -0.00651706267315
---
linear: 
  x: 0.0
  y: 0.0
  z: 0.0
angular: 
  x: 0.0
  y: 0.0
  z: 0.0
---
linear: 
  x: 0.0
  y: 0.0
  z: 0.0
angular: 
  x: 0.0
  y: 0.0
  z: 0.0
---
linear: 
  x: 0.0
  y: 0.0
  z: 0.0
angular: 
  x: 0.0
  y: 0.0
  z: 0.0
---
linear: 
  x: 0.0
  y: 0.0
  z: 0.0
angular: 
  x: 0.0
  y: 0.0
  z: 0.0
---
linear: 
  x: 0.0502642435431
  y: 0.0
  z: 0.0
angular: 
  x: 0.0
  y: 0.0
  z: -0.000676665158107
---
linear: 
  x: 0.0502642435431
  y: 0.0
  z: 0.0
angular: 
  x: 0.0
  y: 0.0
  z: -0.000676665158107
---
linear: 
  x: 0.0543087214654
  y: 0.0
  z: 0.0
angular: 
  x: 0.0
  y: 0.0
  z: -0.000286152748664
---
linear: 
  x: 0.0
  y: 0.0
  z: 0.0
angular: 
  x: 0.0
  y: 0.0
  z: 0.0
---
linear: 
  x: 0.0
  y: 0.0
  z: 0.0
angular: 
  x: 0.0
  y: 0.0
  z: 0.0
---
