header: 
  seq: 213
  stamp: 
    secs: 0
    nsecs:         0
  frame_id: /robot_frame
pose: 
  position: 
    x: 3.79981476991
    y: -0.840441149686
    z: 0.0
  orientation: 
    x: 0.0
    y: 0.0
    z: -0.108622791981
    w: 0.994083039319
---
header: 
  seq: 214
  stamp: 
    secs: 0
    nsecs:         0
  frame_id: /robot_frame
pose: 
  position: 
    x: 3.72466310557
    y: -0.827561195925
    z: 0.0
  orientation: 
    x: 0.0
    y: 0.0
    z: -0.109098751167
    w: 0.994030916267
---
header: 
  seq: 215
  stamp: 
    secs: 0
    nsecs:         0
  frame_id: /robot_frame
pose: 
  position: 
    x: 3.72466310557
    y: -0.827561195925
    z: 0.0
  orientation: 
    x: 0.0
    y: 0.0
    z: -0.109098751167
    w: 0.994030916267
---
header: 
  seq: 216
  stamp: 
    secs: 0
    nsecs:         0
  frame_id: /robot_frame
pose: 
  position: 
    x: 3.72466310557
    y: -0.827561195925
    z: 0.0
  orientation: 
    x: 0.0
    y: 0.0
    z: -0.109098751167
    w: 0.994030916267
---
header: 
  seq: 217
  stamp: 
    secs: 0
    nsecs:         0
  frame_id: /robot_frame
pose: 
  position: 
    x: 3.72466310557
    y: -0.827561195925
    z: 0.0
  orientation: 
    x: 0.0
    y: 0.0
    z: -0.109098751167
    w: 0.994030916267
---
header: 
  seq: 218
  stamp: 
    secs: 0
    nsecs:         0
  frame_id: /robot_frame
pose: 
  position: 
    x: 3.72466310557
    y: -0.827561195925
    z: 0.0
  orientation: 
    x: 0.0
    y: 0.0
    z: -0.109098751167
    w: 0.994030916267
---
header: 
  seq: 219
  stamp: 
    secs: 0
    nsecs:         0
  frame_id: /robot_frame
pose: 
  position: 
    x: 4.0856109025
    y: -0.956921532937
    z: 0.0
  orientation: 
    x: 0.0
    y: 0.0
    z: -0.114781593394
    w: 0.993390751828
---
header: 
  seq: 220
  stamp: 
    secs: 0
    nsecs:         0
  frame_id: /robot_frame
pose: 
  position: 
    x: 4.0856109025
    y: -0.956921532937
    z: 0.0
  orientation: 
    x: 0.0
    y: 0.0
    z: -0.114781593394
    w: 0.993390751828
---
header: 
  seq: 221
  stamp: 
    secs: 0
    nsecs:         0
  frame_id: /robot_frame
pose: 
  position: 
    x: 4.0856109025
    y: -0.956921532937
    z: 0.0
  orientation: 
    x: 0.0
    y: 0.0
    z: -0.114781593394
    w: 0.993390751828
---
header: 
  seq: 222
  stamp: 
    secs: 0
    nsecs:         0
  frame_id: /robot_frame
pose: 
  position: 
    x: 4.0856109025
    y: -0.956921532937
    z: 0.0
  orientation: 
    x: 0.0
    y: 0.0
    z: -0.114781593394
    w: 0.993390751828
---
header: 
  seq: 223
  stamp: 
    secs: 0
    nsecs:         0
  frame_id: /robot_frame
pose: 
  position: 
    x: 4.0872304835
    y: -1.02616724846
    z: 0.0
  orientation: 
    x: 0.0
    y: 0.0
    z: -0.122681313287
    w: 0.992446117112
---
header: 
  seq: 224
  stamp: 
    secs: 0
    nsecs:         0
  frame_id: /robot_frame
pose: 
  position: 
    x: 4.0872304835
    y: -1.02616724846
    z: 0.0
  orientation: 
    x: 0.0
    y: 0.0
    z: -0.122681313287
    w: 0.992446117112
---
header: 
  seq: 225
  stamp: 
    secs: 0
    nsecs:         0
  frame_id: /robot_frame
pose: 
  position: 
    x: 4.0872304835
    y: -1.02616724846
    z: 0.0
  orientation: 
    x: 0.0
    y: 0.0
    z: -0.122681313287
    w: 0.992446117112
---
header: 
  seq: 226
  stamp: 
    secs: 0
    nsecs:         0
  frame_id: /robot_frame
pose: 
  position: 
    x: 4.0872304835
    y: -1.02616724846
    z: 0.0
  orientation: 
    x: 0.0
    y: 0.0
    z: -0.122681313287
    w: 0.992446117112
---
header: 
  seq: 227
  stamp: 
    secs: 0
    nsecs:         0
  frame_id: /robot_frame
pose: 
  position: 
    x: 4.0872304835
    y: -1.02616724846
    z: 0.0
  orientation: 
    x: 0.0
    y: 0.0
    z: -0.122681313287
    w: 0.992446117112
---
header: 
  seq: 228
  stamp: 
    secs: 0
    nsecs:         0
  frame_id: /robot_frame
pose: 
  position: 
    x: 3.63765456795
    y: -0.960086477082
    z: 0.0
  orientation: 
    x: 0.0
    y: 0.0
    z: -0.128665203447
    w: 0.991688088777
---
header: 
  seq: 229
  stamp: 
    secs: 0
    nsecs:         0
  frame_id: /robot_frame
pose: 
  position: 
    x: 3.63765456795
    y: -0.960086477082
    z: 0.0
  orientation: 
    x: 0.0
    y: 0.0
    z: -0.128665203447
    w: 0.991688088777
---
header: 
  seq: 230
  stamp: 
    secs: 0
    nsecs:         0
  frame_id: /robot_frame
pose: 
  position: 
    x: 3.63765456795
    y: -0.960086477082
    z: 0.0
  orientation: 
    x: 0.0
    y: 0.0
    z: -0.128665203447
    w: 0.991688088777
---
header: 
  seq: 231
  stamp: 
    secs: 0
    nsecs:         0
  frame_id: /robot_frame
pose: 
  position: 
    x: 3.63765456795
    y: -0.960086477082
    z: 0.0
  orientation: 
    x: 0.0
    y: 0.0
    z: -0.128665203447
    w: 0.991688088777
---
header: 
  seq: 232
  stamp: 
    secs: 0
    nsecs:         0
  frame_id: /robot_frame
pose: 
  position: 
    x: 3.63765456795
    y: -0.960086477082
    z: 0.0
  orientation: 
    x: 0.0
    y: 0.0
    z: -0.128665203447
    w: 0.991688088777
---
header: 
  seq: 233
  stamp: 
    secs: 0
    nsecs:         0
  frame_id: /robot_frame
pose: 
  position: 
    x: 3.5948977995
    y: -0.954859333644
    z: 0.0
  orientation: 
    x: 0.0
    y: 0.0
    z: -0.129445957984
    w: 0.991586478307
---
header: 
  seq: 234
  stamp: 
    secs: 0
    nsecs:         0
  frame_id: /robot_frame
pose: 
  position: 
    x: 3.5948977995
    y: -0.954859333644
    z: 0.0
  orientation: 
    x: 0.0
    y: 0.0
    z: -0.129445957984
    w: 0.991586478307
---
header: 
  seq: 235
  stamp: 
    secs: 0
    nsecs:         0
  frame_id: /robot_frame
pose: 
  position: 
    x: 3.5948977995
    y: -0.954859333644
    z: 0.0
  orientation: 
    x: 0.0
    y: 0.0
    z: -0.129445957984
    w: 0.991586478307
---
header: 
  seq: 236
  stamp: 
    secs: 0
    nsecs:         0
  frame_id: /robot_frame
pose: 
  position: 
    x: 3.5948977995
    y: -0.954859333644
    z: 0.0
  orientation: 
    x: 0.0
    y: 0.0
    z: -0.129445957984
    w: 0.991586478307
---
header: 
  seq: 237
  stamp: 
    secs: 0
    nsecs:         0
  frame_id: /robot_frame
pose: 
  position: 
    x: 3.5948977995
    y: -0.954859333644
    z: 0.0
  orientation: 
    x: 0.0
    y: 0.0
    z: -0.129445957984
    w: 0.991586478307
---
header: 
  seq: 238
  stamp: 
    secs: 0
    nsecs:         0
  frame_id: /robot_frame
pose: 
  position: 
    x: 3.5948977995
    y: -0.954859333644
    z: 0.0
  orientation: 
    x: 0.0
    y: 0.0
    z: -0.129445957984
    w: 0.991586478307
---
header: 
  seq: 239
  stamp: 
    secs: 0
    nsecs:         0
  frame_id: /robot_frame
pose: 
  position: 
    x: 3.5948977995
    y: -0.954859333644
    z: 0.0
  orientation: 
    x: 0.0
    y: 0.0
    z: -0.129445957984
    w: 0.991586478307
---
header: 
  seq: 240
  stamp: 
    secs: 0
    nsecs:         0
  frame_id: /robot_frame
pose: 
  position: 
    x: 3.63976644545
    y: -0.935600653694
    z: 0.0
  orientation: 
    x: 0.0
    y: 0.0
    z: -0.12546970848
    w: 0.992097450987
---
header: 
  seq: 241
  stamp: 
    secs: 0
    nsecs:         0
  frame_id: /robot_frame
pose: 
  position: 
    x: 3.63976644545
    y: -0.935600653694
    z: 0.0
  orientation: 
    x: 0.0
    y: 0.0
    z: -0.12546970848
    w: 0.992097450987
---
header: 
  seq: 242
  stamp: 
    secs: 0
    nsecs:         0
  frame_id: /robot_frame
pose: 
  position: 
    x: 3.63976644545
    y: -0.935600653694
    z: 0.0
  orientation: 
    x: 0.0
    y: 0.0
    z: -0.12546970848
    w: 0.992097450987
---
header: 
  seq: 243
  stamp: 
    secs: 0
    nsecs:         0
  frame_id: /robot_frame
pose: 
  position: 
    x: 3.63976644545
    y: -0.935600653694
    z: 0.0
  orientation: 
    x: 0.0
    y: 0.0
    z: -0.12546970848
    w: 0.992097450987
---
header: 
  seq: 244
  stamp: 
    secs: 0
    nsecs:         0
  frame_id: /robot_frame
pose: 
  position: 
    x: 3.63976644545
    y: -0.935600653694
    z: 0.0
  orientation: 
    x: 0.0
    y: 0.0
    z: -0.12546970848
    w: 0.992097450987
---
header: 
  seq: 245
  stamp: 
    secs: 0
    nsecs:         0
  frame_id: /robot_frame
pose: 
  position: 
    x: 3.68150786104
    y: -0.912216066396
    z: 0.0
  orientation: 
    x: 0.0
    y: 0.0
    z: -0.121147308624
    w: 0.992634539805
---
header: 
  seq: 246
  stamp: 
    secs: 0
    nsecs:         0
  frame_id: /robot_frame
pose: 
  position: 
    x: 3.68150786104
    y: -0.912216066396
    z: 0.0
  orientation: 
    x: 0.0
    y: 0.0
    z: -0.121147308624
    w: 0.992634539805
---
header: 
  seq: 247
  stamp: 
    secs: 0
    nsecs:         0
  frame_id: /robot_frame
pose: 
  position: 
    x: 3.68150786104
    y: -0.912216066396
    z: 0.0
  orientation: 
    x: 0.0
    y: 0.0
    z: -0.121147308624
    w: 0.992634539805
---
header: 
  seq: 248
  stamp: 
    secs: 0
    nsecs:         0
  frame_id: /robot_frame
pose: 
  position: 
    x: 3.68150786104
    y: -0.912216066396
    z: 0.0
  orientation: 
    x: 0.0
    y: 0.0
    z: -0.121147308624
    w: 0.992634539805
---
header: 
  seq: 249
  stamp: 
    secs: 0
    nsecs:         0
  frame_id: /robot_frame
pose: 
  position: 
    x: 3.68150786104
    y: -0.912216066396
    z: 0.0
  orientation: 
    x: 0.0
    y: 0.0
    z: -0.121147308624
    w: 0.992634539805
---
header: 
  seq: 250
  stamp: 
    secs: 0
    nsecs:         0
  frame_id: /robot_frame
pose: 
  position: 
    x: 3.56177668084
    y: -0.882278093341
    z: 0.0
  orientation: 
    x: 0.0
    y: 0.0
    z: -0.121111783597
    w: 0.992638874855
---
header: 
  seq: 251
  stamp: 
    secs: 0
    nsecs:         0
  frame_id: /robot_frame
pose: 
  position: 
    x: 3.56177668084
    y: -0.882278093341
    z: 0.0
  orientation: 
    x: 0.0
    y: 0.0
    z: -0.121111783597
    w: 0.992638874855
---
header: 
  seq: 252
  stamp: 
    secs: 0
    nsecs:         0
  frame_id: /robot_frame
pose: 
  position: 
    x: 3.56177668084
    y: -0.882278093341
    z: 0.0
  orientation: 
    x: 0.0
    y: 0.0
    z: -0.121111783597
    w: 0.992638874855
---
header: 
  seq: 253
  stamp: 
    secs: 0
    nsecs:         0
  frame_id: /robot_frame
pose: 
  position: 
    x: 3.56177668084
    y: -0.882278093341
    z: 0.0
  orientation: 
    x: 0.0
    y: 0.0
    z: -0.121111783597
    w: 0.992638874855
---
header: 
  seq: 254
  stamp: 
    secs: 0
    nsecs:         0
  frame_id: /robot_frame
pose: 
  position: 
    x: 3.56177668084
    y: -0.882278093341
    z: 0.0
  orientation: 
    x: 0.0
    y: 0.0
    z: -0.121111783597
    w: 0.992638874855
---
header: 
  seq: 255
  stamp: 
    secs: 0
    nsecs:         0
  frame_id: /robot_frame
pose: 
  position: 
    x: 3.491331163
    y: -0.907603849759
    z: 0.0
  orientation: 
    x: 0.0
    y: 0.0
    z: -0.126822494687
    w: 0.991925428065
---
header: 
  seq: 256
  stamp: 
    secs: 0
    nsecs:         0
  frame_id: /robot_frame
pose: 
  position: 
    x: 3.491331163
    y: -0.907603849759
    z: 0.0
  orientation: 
    x: 0.0
    y: 0.0
    z: -0.126822494687
    w: 0.991925428065
---
header: 
  seq: 257
  stamp: 
    secs: 0
    nsecs:         0
  frame_id: /robot_frame
pose: 
  position: 
    x: 3.491331163
    y: -0.907603849759
    z: 0.0
  orientation: 
    x: 0.0
    y: 0.0
    z: -0.126822494687
    w: 0.991925428065
---
header: 
  seq: 258
  stamp: 
    secs: 0
    nsecs:         0
  frame_id: /robot_frame
pose: 
  position: 
    x: 3.491331163
    y: -0.907603849759
    z: 0.0
  orientation: 
    x: 0.0
    y: 0.0
    z: -0.126822494687
    w: 0.991925428065
---
header: 
  seq: 259
  stamp: 
    secs: 0
    nsecs:         0
  frame_id: /robot_frame
pose: 
  position: 
    x: 3.57271130215
    y: -1.04329634862
    z: 0.0
  orientation: 
    x: 0.0
    y: 0.0
    z: -0.141581649873
    w: 0.989926581328
---
header: 
  seq: 260
  stamp: 
    secs: 0
    nsecs:         0
  frame_id: /robot_frame
pose: 
  position: 
    x: 3.57271130215
    y: -1.04329634862
    z: 0.0
  orientation: 
    x: 0.0
    y: 0.0
    z: -0.141581649873
    w: 0.989926581328
---
header: 
  seq: 261
  stamp: 
    secs: 0
    nsecs:         0
  frame_id: /robot_frame
pose: 
  position: 
    x: 3.57271130215
    y: -1.04329634862
    z: 0.0
  orientation: 
    x: 0.0
    y: 0.0
    z: -0.141581649873
    w: 0.989926581328
---
header: 
  seq: 262
  stamp: 
    secs: 0
    nsecs:         0
  frame_id: /robot_frame
pose: 
  position: 
    x: 3.57271130215
    y: -1.04329634862
    z: 0.0
  orientation: 
    x: 0.0
    y: 0.0
    z: -0.141581649873
    w: 0.989926581328
---
header: 
  seq: 263
  stamp: 
    secs: 0
    nsecs:         0
  frame_id: /robot_frame
pose: 
  position: 
    x: 3.57271130215
    y: -1.04329634862
    z: 0.0
  orientation: 
    x: 0.0
    y: 0.0
    z: -0.141581649873
    w: 0.989926581328
---
header: 
  seq: 264
  stamp: 
    secs: 0
    nsecs:         0
  frame_id: /robot_frame
pose: 
  position: 
    x: 3.54958837739
    y: -1.14247597098
    z: 0.0
  orientation: 
    x: 0.0
    y: 0.0
    z: -0.155067052564
    w: 0.98790394736
---
header: 
  seq: 265
  stamp: 
    secs: 0
    nsecs:         0
  frame_id: /robot_frame
pose: 
  position: 
    x: 3.54958837739
    y: -1.14247597098
    z: 0.0
  orientation: 
    x: 0.0
    y: 0.0
    z: -0.155067052564
    w: 0.98790394736
---
header: 
  seq: 266
  stamp: 
    secs: 0
    nsecs:         0
  frame_id: /robot_frame
pose: 
  position: 
    x: 3.54958837739
    y: -1.14247597098
    z: 0.0
  orientation: 
    x: 0.0
    y: 0.0
    z: -0.155067052564
    w: 0.98790394736
---
header: 
  seq: 267
  stamp: 
    secs: 0
    nsecs:         0
  frame_id: /robot_frame
pose: 
  position: 
    x: 3.54958837739
    y: -1.14247597098
    z: 0.0
  orientation: 
    x: 0.0
    y: 0.0
    z: -0.155067052564
    w: 0.98790394736
---
header: 
  seq: 268
  stamp: 
    secs: 0
    nsecs:         0
  frame_id: /robot_frame
pose: 
  position: 
    x: 3.56513883606
    y: -1.17765351751
    z: 0.0
  orientation: 
    x: 0.0
    y: 0.0
    z: -0.158844502016
    w: 0.987303612968
---
header: 
  seq: 269
  stamp: 
    secs: 0
    nsecs:         0
  frame_id: /robot_frame
pose: 
  position: 
    x: 3.56513883606
    y: -1.17765351751
    z: 0.0
  orientation: 
    x: 0.0
    y: 0.0
    z: -0.158844502016
    w: 0.987303612968
---
header: 
  seq: 270
  stamp: 
    secs: 0
    nsecs:         0
  frame_id: /robot_frame
pose: 
  position: 
    x: 3.56513883606
    y: -1.17765351751
    z: 0.0
  orientation: 
    x: 0.0
    y: 0.0
    z: -0.158844502016
    w: 0.987303612968
---
header: 
  seq: 271
  stamp: 
    secs: 0
    nsecs:         0
  frame_id: /robot_frame
pose: 
  position: 
    x: 3.56513883606
    y: -1.17765351751
    z: 0.0
  orientation: 
    x: 0.0
    y: 0.0
    z: -0.158844502016
    w: 0.987303612968
---
header: 
  seq: 272
  stamp: 
    secs: 0
    nsecs:         0
  frame_id: /robot_frame
pose: 
  position: 
    x: 3.58449819105
    y: -1.17246848027
    z: 0.0
  orientation: 
    x: 0.0
    y: 0.0
    z: -0.157405077726
    w: 0.987534121692
---
header: 
  seq: 273
  stamp: 
    secs: 0
    nsecs:         0
  frame_id: /robot_frame
pose: 
  position: 
    x: 3.58449819105
    y: -1.17246848027
    z: 0.0
  orientation: 
    x: 0.0
    y: 0.0
    z: -0.157405077726
    w: 0.987534121692
---
header: 
  seq: 274
  stamp: 
    secs: 0
    nsecs:         0
  frame_id: /robot_frame
pose: 
  position: 
    x: 3.58449819105
    y: -1.17246848027
    z: 0.0
  orientation: 
    x: 0.0
    y: 0.0
    z: -0.157405077726
    w: 0.987534121692
---
header: 
  seq: 275
  stamp: 
    secs: 0
    nsecs:         0
  frame_id: /robot_frame
pose: 
  position: 
    x: 3.58449819105
    y: -1.17246848027
    z: 0.0
  orientation: 
    x: 0.0
    y: 0.0
    z: -0.157405077726
    w: 0.987534121692
---
header: 
  seq: 276
  stamp: 
    secs: 0
    nsecs:         0
  frame_id: /robot_frame
pose: 
  position: 
    x: 3.58449819105
    y: -1.17246848027
    z: 0.0
  orientation: 
    x: 0.0
    y: 0.0
    z: -0.157405077726
    w: 0.987534121692
---
header: 
  seq: 277
  stamp: 
    secs: 0
    nsecs:         0
  frame_id: /robot_frame
pose: 
  position: 
    x: 3.69117037757
    y: -1.1797272879
    z: 0.0
  orientation: 
    x: 0.0
    y: 0.0
    z: -0.154057625838
    w: 0.98806186442
---
header: 
  seq: 278
  stamp: 
    secs: 0
    nsecs:         0
  frame_id: /robot_frame
pose: 
  position: 
    x: 3.69117037757
    y: -1.1797272879
    z: 0.0
  orientation: 
    x: 0.0
    y: 0.0
    z: -0.154057625838
    w: 0.98806186442
---
header: 
  seq: 279
  stamp: 
    secs: 0
    nsecs:         0
  frame_id: /robot_frame
pose: 
  position: 
    x: 3.69117037757
    y: -1.1797272879
    z: 0.0
  orientation: 
    x: 0.0
    y: 0.0
    z: -0.154057625838
    w: 0.98806186442
---
header: 
  seq: 280
  stamp: 
    secs: 0
    nsecs:         0
  frame_id: /robot_frame
pose: 
  position: 
    x: 3.69117037757
    y: -1.1797272879
    z: 0.0
  orientation: 
    x: 0.0
    y: 0.0
    z: -0.154057625838
    w: 0.98806186442
---
header: 
  seq: 281
  stamp: 
    secs: 0
    nsecs:         0
  frame_id: /robot_frame
pose: 
  position: 
    x: 3.68080572148
    y: -1.16009889619
    z: 0.0
  orientation: 
    x: 0.0
    y: 0.0
    z: -0.152067857875
    w: 0.988370055496
---
header: 
  seq: 282
  stamp: 
    secs: 0
    nsecs:         0
  frame_id: /robot_frame
pose: 
  position: 
    x: 3.68080572148
    y: -1.16009889619
    z: 0.0
  orientation: 
    x: 0.0
    y: 0.0
    z: -0.152067857875
    w: 0.988370055496
---
header: 
  seq: 283
  stamp: 
    secs: 0
    nsecs:         0
  frame_id: /robot_frame
pose: 
  position: 
    x: 3.68080572148
    y: -1.16009889619
    z: 0.0
  orientation: 
    x: 0.0
    y: 0.0
    z: -0.152067857875
    w: 0.988370055496
---
header: 
  seq: 284
  stamp: 
    secs: 0
    nsecs:         0
  frame_id: /robot_frame
pose: 
  position: 
    x: 3.68080572148
    y: -1.16009889619
    z: 0.0
  orientation: 
    x: 0.0
    y: 0.0
    z: -0.152067857875
    w: 0.988370055496
---
header: 
  seq: 285
  stamp: 
    secs: 0
    nsecs:         0
  frame_id: /robot_frame
pose: 
  position: 
    x: 3.68080572148
    y: -1.16009889619
    z: 0.0
  orientation: 
    x: 0.0
    y: 0.0
    z: -0.152067857875
    w: 0.988370055496
---
header: 
  seq: 286
  stamp: 
    secs: 0
    nsecs:         0
  frame_id: /robot_frame
pose: 
  position: 
    x: 3.50945759368
    y: -1.14340329672
    z: 0.0
  orientation: 
    x: 0.0
    y: 0.0
    z: -0.156830370595
    w: 0.987625553972
---
header: 
  seq: 287
  stamp: 
    secs: 0
    nsecs:         0
  frame_id: /robot_frame
pose: 
  position: 
    x: 3.50945759368
    y: -1.14340329672
    z: 0.0
  orientation: 
    x: 0.0
    y: 0.0
    z: -0.156830370595
    w: 0.987625553972
---
header: 
  seq: 288
  stamp: 
    secs: 0
    nsecs:         0
  frame_id: /robot_frame
pose: 
  position: 
    x: 3.50945759368
    y: -1.14340329672
    z: 0.0
  orientation: 
    x: 0.0
    y: 0.0
    z: -0.156830370595
    w: 0.987625553972
---
header: 
  seq: 289
  stamp: 
    secs: 0
    nsecs:         0
  frame_id: /robot_frame
pose: 
  position: 
    x: 3.50945759368
    y: -1.14340329672
    z: 0.0
  orientation: 
    x: 0.0
    y: 0.0
    z: -0.156830370595
    w: 0.987625553972
---
header: 
  seq: 290
  stamp: 
    secs: 0
    nsecs:         0
  frame_id: /robot_frame
pose: 
  position: 
    x: 3.50945759368
    y: -1.14340329672
    z: 0.0
  orientation: 
    x: 0.0
    y: 0.0
    z: -0.156830370595
    w: 0.987625553972
---
header: 
  seq: 291
  stamp: 
    secs: 0
    nsecs:         0
  frame_id: /robot_frame
pose: 
  position: 
    x: 3.51573980046
    y: -1.21304125673
    z: 0.0
  orientation: 
    x: 0.0
    y: 0.0
    z: -0.165357889652
    w: 0.986233627661
---
header: 
  seq: 292
  stamp: 
    secs: 0
    nsecs:         0
  frame_id: /robot_frame
pose: 
  position: 
    x: 3.51573980046
    y: -1.21304125673
    z: 0.0
  orientation: 
    x: 0.0
    y: 0.0
    z: -0.165357889652
    w: 0.986233627661
---
header: 
  seq: 293
  stamp: 
    secs: 0
    nsecs:         0
  frame_id: /robot_frame
pose: 
  position: 
    x: 3.51573980046
    y: -1.21304125673
    z: 0.0
  orientation: 
    x: 0.0
    y: 0.0
    z: -0.165357889652
    w: 0.986233627661
---
header: 
  seq: 294
  stamp: 
    secs: 0
    nsecs:         0
  frame_id: /robot_frame
pose: 
  position: 
    x: 3.51573980046
    y: -1.21304125673
    z: 0.0
  orientation: 
    x: 0.0
    y: 0.0
    z: -0.165357889652
    w: 0.986233627661
---
header: 
  seq: 295
  stamp: 
    secs: 0
    nsecs:         0
  frame_id: /robot_frame
pose: 
  position: 
    x: 3.51573980046
    y: -1.21304125673
    z: 0.0
  orientation: 
    x: 0.0
    y: 0.0
    z: -0.165357889652
    w: 0.986233627661
---
header: 
  seq: 296
  stamp: 
    secs: 0
    nsecs:         0
  frame_id: /robot_frame
pose: 
  position: 
    x: 3.51573980046
    y: -1.21304125673
    z: 0.0
  orientation: 
    x: 0.0
    y: 0.0
    z: -0.165357889652
    w: 0.986233627661
---
header: 
  seq: 297
  stamp: 
    secs: 0
    nsecs:         0
  frame_id: /robot_frame
pose: 
  position: 
    x: 4.15799983777
    y: -1.44594168739
    z: 0.0
  orientation: 
    x: 0.0
    y: 0.0
    z: -0.166554363951
    w: 0.986032273229
---
header: 
  seq: 298
  stamp: 
    secs: 0
    nsecs:         0
  frame_id: /robot_frame
pose: 
  position: 
    x: 4.15799983777
    y: -1.44594168739
    z: 0.0
  orientation: 
    x: 0.0
    y: 0.0
    z: -0.166554363951
    w: 0.986032273229
---
header: 
  seq: 299
  stamp: 
    secs: 0
    nsecs:         0
  frame_id: /robot_frame
pose: 
  position: 
    x: 4.15799983777
    y: -1.44594168739
    z: 0.0
  orientation: 
    x: 0.0
    y: 0.0
    z: -0.166554363951
    w: 0.986032273229
---
header: 
  seq: 300
  stamp: 
    secs: 0
    nsecs:         0
  frame_id: /robot_frame
pose: 
  position: 
    x: 4.14372494743
    y: -1.42773524514
    z: 0.0
  orientation: 
    x: 0.0
    y: 0.0
    z: -0.165147218424
    w: 0.98626892694
---
header: 
  seq: 301
  stamp: 
    secs: 0
    nsecs:         0
  frame_id: /robot_frame
pose: 
  position: 
    x: 4.14372494743
    y: -1.42773524514
    z: 0.0
  orientation: 
    x: 0.0
    y: 0.0
    z: -0.165147218424
    w: 0.98626892694
---
header: 
  seq: 302
  stamp: 
    secs: 0
    nsecs:         0
  frame_id: /robot_frame
pose: 
  position: 
    x: 4.14372494743
    y: -1.42773524514
    z: 0.0
  orientation: 
    x: 0.0
    y: 0.0
    z: -0.165147218424
    w: 0.98626892694
---
header: 
  seq: 303
  stamp: 
    secs: 0
    nsecs:         0
  frame_id: /robot_frame
pose: 
  position: 
    x: 4.14372494743
    y: -1.42773524514
    z: 0.0
  orientation: 
    x: 0.0
    y: 0.0
    z: -0.165147218424
    w: 0.98626892694
---
header: 
  seq: 304
  stamp: 
    secs: 0
    nsecs:         0
  frame_id: /robot_frame
pose: 
  position: 
    x: 4.14372494743
    y: -1.42773524514
    z: 0.0
  orientation: 
    x: 0.0
    y: 0.0
    z: -0.165147218424
    w: 0.98626892694
---
header: 
  seq: 305
  stamp: 
    secs: 0
    nsecs:         0
  frame_id: /robot_frame
pose: 
  position: 
    x: 4.14372494743
    y: -1.42773524514
    z: 0.0
  orientation: 
    x: 0.0
    y: 0.0
    z: -0.165147218424
    w: 0.98626892694
---
header: 
  seq: 306
  stamp: 
    secs: 0
    nsecs:         0
  frame_id: /robot_frame
pose: 
  position: 
    x: 4.14372494743
    y: -1.42773524514
    z: 0.0
  orientation: 
    x: 0.0
    y: 0.0
    z: -0.165147218424
    w: 0.98626892694
---
header: 
  seq: 307
  stamp: 
    secs: 0
    nsecs:         0
  frame_id: /robot_frame
pose: 
  position: 
    x: 3.59255376553
    y: -1.22055541564
    z: 0.0
  orientation: 
    x: 0.0
    y: 0.0
    z: -0.163024468416
    w: 0.986622026258
---
header: 
  seq: 308
  stamp: 
    secs: 0
    nsecs:         0
  frame_id: /robot_frame
pose: 
  position: 
    x: 3.59255376553
    y: -1.22055541564
    z: 0.0
  orientation: 
    x: 0.0
    y: 0.0
    z: -0.163024468416
    w: 0.986622026258
---
header: 
  seq: 309
  stamp: 
    secs: 0
    nsecs:         0
  frame_id: /robot_frame
pose: 
  position: 
    x: 3.59255376553
    y: -1.22055541564
    z: 0.0
  orientation: 
    x: 0.0
    y: 0.0
    z: -0.163024468416
    w: 0.986622026258
---
header: 
  seq: 310
  stamp: 
    secs: 0
    nsecs:         0
  frame_id: /robot_frame
pose: 
  position: 
    x: 3.59255376553
    y: -1.22055541564
    z: 0.0
  orientation: 
    x: 0.0
    y: 0.0
    z: -0.163024468416
    w: 0.986622026258
---
header: 
  seq: 311
  stamp: 
    secs: 0
    nsecs:         0
  frame_id: /robot_frame
pose: 
  position: 
    x: 3.63441800596
    y: -1.24106184335
    z: 0.0
  orientation: 
    x: 0.0
    y: 0.0
    z: -0.163788603923
    w: 0.986495460316
---
header: 
  seq: 312
  stamp: 
    secs: 0
    nsecs:         0
  frame_id: /robot_frame
pose: 
  position: 
    x: 3.63441800596
    y: -1.24106184335
    z: 0.0
  orientation: 
    x: 0.0
    y: 0.0
    z: -0.163788603923
    w: 0.986495460316
---
header: 
  seq: 313
  stamp: 
    secs: 0
    nsecs:         0
  frame_id: /robot_frame
pose: 
  position: 
    x: 3.63441800596
    y: -1.24106184335
    z: 0.0
  orientation: 
    x: 0.0
    y: 0.0
    z: -0.163788603923
    w: 0.986495460316
---
header: 
  seq: 314
  stamp: 
    secs: 0
    nsecs:         0
  frame_id: /robot_frame
pose: 
  position: 
    x: 3.63441800596
    y: -1.24106184335
    z: 0.0
  orientation: 
    x: 0.0
    y: 0.0
    z: -0.163788603923
    w: 0.986495460316
---
header: 
  seq: 315
  stamp: 
    secs: 0
    nsecs:         0
  frame_id: /robot_frame
pose: 
  position: 
    x: 3.63441800596
    y: -1.24106184335
    z: 0.0
  orientation: 
    x: 0.0
    y: 0.0
    z: -0.163788603923
    w: 0.986495460316
---
header: 
  seq: 316
  stamp: 
    secs: 0
    nsecs:         0
  frame_id: /robot_frame
pose: 
  position: 
    x: 3.64485202065
    y: -1.2896004382
    z: 0.0
  orientation: 
    x: 0.0
    y: 0.0
    z: -0.169216218543
    w: 0.985578952384
---
header: 
  seq: 317
  stamp: 
    secs: 0
    nsecs:         0
  frame_id: /robot_frame
pose: 
  position: 
    x: 3.64485202065
    y: -1.2896004382
    z: 0.0
  orientation: 
    x: 0.0
    y: 0.0
    z: -0.169216218543
    w: 0.985578952384
---
header: 
  seq: 318
  stamp: 
    secs: 0
    nsecs:         0
  frame_id: /robot_frame
pose: 
  position: 
    x: 3.64485202065
    y: -1.2896004382
    z: 0.0
  orientation: 
    x: 0.0
    y: 0.0
    z: -0.169216218543
    w: 0.985578952384
---
header: 
  seq: 319
  stamp: 
    secs: 0
    nsecs:         0
  frame_id: /robot_frame
pose: 
  position: 
    x: 3.64485202065
    y: -1.2896004382
    z: 0.0
  orientation: 
    x: 0.0
    y: 0.0
    z: -0.169216218543
    w: 0.985578952384
---
header: 
  seq: 320
  stamp: 
    secs: 0
    nsecs:         0
  frame_id: /robot_frame
pose: 
  position: 
    x: 3.64485202065
    y: -1.2896004382
    z: 0.0
  orientation: 
    x: 0.0
    y: 0.0
    z: -0.169216218543
    w: 0.985578952384
---
header: 
  seq: 321
  stamp: 
    secs: 0
    nsecs:         0
  frame_id: /robot_frame
pose: 
  position: 
    x: 3.64485202065
    y: -1.2896004382
    z: 0.0
  orientation: 
    x: 0.0
    y: 0.0
    z: -0.169216218543
    w: 0.985578952384
---
header: 
  seq: 322
  stamp: 
    secs: 0
    nsecs:         0
  frame_id: /robot_frame
pose: 
  position: 
    x: 3.75097117544
    y: -1.37512472283
    z: 0.0
  orientation: 
    x: 0.0
    y: 0.0
    z: -0.1747926868
    w: 0.9846052593
---
header: 
  seq: 323
  stamp: 
    secs: 0
    nsecs:         0
  frame_id: /robot_frame
pose: 
  position: 
    x: 3.75097117544
    y: -1.37512472283
    z: 0.0
  orientation: 
    x: 0.0
    y: 0.0
    z: -0.1747926868
    w: 0.9846052593
---
header: 
  seq: 324
  stamp: 
    secs: 0
    nsecs:         0
  frame_id: /robot_frame
pose: 
  position: 
    x: 3.75097117544
    y: -1.37512472283
    z: 0.0
  orientation: 
    x: 0.0
    y: 0.0
    z: -0.1747926868
    w: 0.9846052593
---
header: 
  seq: 325
  stamp: 
    secs: 0
    nsecs:         0
  frame_id: /robot_frame
pose: 
  position: 
    x: 3.75097117544
    y: -1.37512472283
    z: 0.0
  orientation: 
    x: 0.0
    y: 0.0
    z: -0.1747926868
    w: 0.9846052593
---
header: 
  seq: 326
  stamp: 
    secs: 0
    nsecs:         0
  frame_id: /robot_frame
pose: 
  position: 
    x: 3.66495691517
    y: -1.35426096421
    z: 0.0
  orientation: 
    x: 0.0
    y: 0.0
    z: -0.176054753911
    w: 0.984380375478
---
header: 
  seq: 327
  stamp: 
    secs: 0
    nsecs:         0
  frame_id: /robot_frame
pose: 
  position: 
    x: 3.66495691517
    y: -1.35426096421
    z: 0.0
  orientation: 
    x: 0.0
    y: 0.0
    z: -0.176054753911
    w: 0.984380375478
---
header: 
  seq: 328
  stamp: 
    secs: 0
    nsecs:         0
  frame_id: /robot_frame
pose: 
  position: 
    x: 3.66495691517
    y: -1.35426096421
    z: 0.0
  orientation: 
    x: 0.0
    y: 0.0
    z: -0.176054753911
    w: 0.984380375478
---
header: 
  seq: 329
  stamp: 
    secs: 0
    nsecs:         0
  frame_id: /robot_frame
pose: 
  position: 
    x: 3.66495691517
    y: -1.35426096421
    z: 0.0
  orientation: 
    x: 0.0
    y: 0.0
    z: -0.176054753911
    w: 0.984380375478
---
header: 
  seq: 330
  stamp: 
    secs: 0
    nsecs:         0
  frame_id: /robot_frame
pose: 
  position: 
    x: 3.66495691517
    y: -1.35426096421
    z: 0.0
  orientation: 
    x: 0.0
    y: 0.0
    z: -0.176054753911
    w: 0.984380375478
---
header: 
  seq: 331
  stamp: 
    secs: 0
    nsecs:         0
  frame_id: /robot_frame
pose: 
  position: 
    x: 3.66495691517
    y: -1.35426096421
    z: 0.0
  orientation: 
    x: 0.0
    y: 0.0
    z: -0.176054753911
    w: 0.984380375478
---
header: 
  seq: 332
  stamp: 
    secs: 0
    nsecs:         0
  frame_id: /robot_frame
pose: 
  position: 
    x: 3.54870259812
    y: -1.32148883634
    z: 0.0
  orientation: 
    x: 0.0
    y: 0.0
    z: -0.177296448065
    w: 0.984157492225
---
header: 
  seq: 333
  stamp: 
    secs: 0
    nsecs:         0
  frame_id: /robot_frame
pose: 
  position: 
    x: 3.54870259812
    y: -1.32148883634
    z: 0.0
  orientation: 
    x: 0.0
    y: 0.0
    z: -0.177296448065
    w: 0.984157492225
---
header: 
  seq: 334
  stamp: 
    secs: 0
    nsecs:         0
  frame_id: /robot_frame
pose: 
  position: 
    x: 3.54870259812
    y: -1.32148883634
    z: 0.0
  orientation: 
    x: 0.0
    y: 0.0
    z: -0.177296448065
    w: 0.984157492225
---
header: 
  seq: 335
  stamp: 
    secs: 0
    nsecs:         0
  frame_id: /robot_frame
pose: 
  position: 
    x: 3.54870259812
    y: -1.32148883634
    z: 0.0
  orientation: 
    x: 0.0
    y: 0.0
    z: -0.177296448065
    w: 0.984157492225
---
header: 
  seq: 336
  stamp: 
    secs: 0
    nsecs:         0
  frame_id: /robot_frame
pose: 
  position: 
    x: 3.54870259812
    y: -1.32148883634
    z: 0.0
  orientation: 
    x: 0.0
    y: 0.0
    z: -0.177296448065
    w: 0.984157492225
---
header: 
  seq: 337
  stamp: 
    secs: 0
    nsecs:         0
  frame_id: /robot_frame
pose: 
  position: 
    x: 3.54870259812
    y: -1.32148883634
    z: 0.0
  orientation: 
    x: 0.0
    y: 0.0
    z: -0.177296448065
    w: 0.984157492225
---
header: 
  seq: 338
  stamp: 
    secs: 0
    nsecs:         0
  frame_id: /robot_frame
pose: 
  position: 
    x: 3.64710703133
    y: -1.37964382168
    z: 0.0
  orientation: 
    x: 0.0
    y: 0.0
    z: -0.179839737799
    w: 0.983695922889
---
header: 
  seq: 339
  stamp: 
    secs: 0
    nsecs:         0
  frame_id: /robot_frame
pose: 
  position: 
    x: 3.64710703133
    y: -1.37964382168
    z: 0.0
  orientation: 
    x: 0.0
    y: 0.0
    z: -0.179839737799
    w: 0.983695922889
---
header: 
  seq: 340
  stamp: 
    secs: 0
    nsecs:         0
  frame_id: /robot_frame
pose: 
  position: 
    x: 3.64710703133
    y: -1.37964382168
    z: 0.0
  orientation: 
    x: 0.0
    y: 0.0
    z: -0.179839737799
    w: 0.983695922889
---
header: 
  seq: 341
  stamp: 
    secs: 0
    nsecs:         0
  frame_id: /robot_frame
pose: 
  position: 
    x: 3.64710703133
    y: -1.37964382168
    z: 0.0
  orientation: 
    x: 0.0
    y: 0.0
    z: -0.179839737799
    w: 0.983695922889
---
header: 
  seq: 342
  stamp: 
    secs: 0
    nsecs:         0
  frame_id: /robot_frame
pose: 
  position: 
    x: 3.64710703133
    y: -1.37964382168
    z: 0.0
  orientation: 
    x: 0.0
    y: 0.0
    z: -0.179839737799
    w: 0.983695922889
---
header: 
  seq: 343
  stamp: 
    secs: 0
    nsecs:         0
  frame_id: /robot_frame
pose: 
  position: 
    x: 3.48442862583
    y: -1.3725853073
    z: 0.0
  orientation: 
    x: 0.0
    y: 0.0
    z: -0.18652798646
    w: 0.982449647701
---
header: 
  seq: 344
  stamp: 
    secs: 0
    nsecs:         0
  frame_id: /robot_frame
pose: 
  position: 
    x: 3.48442862583
    y: -1.3725853073
    z: 0.0
  orientation: 
    x: 0.0
    y: 0.0
    z: -0.18652798646
    w: 0.982449647701
---
header: 
  seq: 345
  stamp: 
    secs: 0
    nsecs:         0
  frame_id: /robot_frame
pose: 
  position: 
    x: 3.48442862583
    y: -1.3725853073
    z: 0.0
  orientation: 
    x: 0.0
    y: 0.0
    z: -0.18652798646
    w: 0.982449647701
---
header: 
  seq: 346
  stamp: 
    secs: 0
    nsecs:         0
  frame_id: /robot_frame
pose: 
  position: 
    x: 3.48442862583
    y: -1.3725853073
    z: 0.0
  orientation: 
    x: 0.0
    y: 0.0
    z: -0.18652798646
    w: 0.982449647701
---
header: 
  seq: 347
  stamp: 
    secs: 0
    nsecs:         0
  frame_id: /robot_frame
pose: 
  position: 
    x: 3.48442862583
    y: -1.3725853073
    z: 0.0
  orientation: 
    x: 0.0
    y: 0.0
    z: -0.18652798646
    w: 0.982449647701
---
header: 
  seq: 348
  stamp: 
    secs: 0
    nsecs:         0
  frame_id: /robot_frame
pose: 
  position: 
    x: 3.37548097931
    y: -1.4095900072
    z: 0.0
  orientation: 
    x: 0.0
    y: 0.0
    z: -0.196504559951
    w: 0.980502910714
---
header: 
  seq: 349
  stamp: 
    secs: 0
    nsecs:         0
  frame_id: /robot_frame
pose: 
  position: 
    x: 3.37548097931
    y: -1.4095900072
    z: 0.0
  orientation: 
    x: 0.0
    y: 0.0
    z: -0.196504559951
    w: 0.980502910714
---
header: 
  seq: 350
  stamp: 
    secs: 0
    nsecs:         0
  frame_id: /robot_frame
pose: 
  position: 
    x: 3.37548097931
    y: -1.4095900072
    z: 0.0
  orientation: 
    x: 0.0
    y: 0.0
    z: -0.196504559951
    w: 0.980502910714
---
header: 
  seq: 351
  stamp: 
    secs: 0
    nsecs:         0
  frame_id: /robot_frame
pose: 
  position: 
    x: 3.37548097931
    y: -1.4095900072
    z: 0.0
  orientation: 
    x: 0.0
    y: 0.0
    z: -0.196504559951
    w: 0.980502910714
---
header: 
  seq: 352
  stamp: 
    secs: 0
    nsecs:         0
  frame_id: /robot_frame
pose: 
  position: 
    x: 3.37548097931
    y: -1.4095900072
    z: 0.0
  orientation: 
    x: 0.0
    y: 0.0
    z: -0.196504559951
    w: 0.980502910714
---
header: 
  seq: 353
  stamp: 
    secs: 0
    nsecs:         0
  frame_id: /robot_frame
pose: 
  position: 
    x: 3.7725074515
    y: -1.61919401805
    z: 0.0
  orientation: 
    x: 0.0
    y: 0.0
    z: -0.201329608375
    w: 0.979523551933
---
header: 
  seq: 354
  stamp: 
    secs: 0
    nsecs:         0
  frame_id: /robot_frame
pose: 
  position: 
    x: 3.7725074515
    y: -1.61919401805
    z: 0.0
  orientation: 
    x: 0.0
    y: 0.0
    z: -0.201329608375
    w: 0.979523551933
---
header: 
  seq: 355
  stamp: 
    secs: 0
    nsecs:         0
  frame_id: /robot_frame
pose: 
  position: 
    x: 3.7725074515
    y: -1.61919401805
    z: 0.0
  orientation: 
    x: 0.0
    y: 0.0
    z: -0.201329608375
    w: 0.979523551933
---
header: 
  seq: 356
  stamp: 
    secs: 0
    nsecs:         0
  frame_id: /robot_frame
pose: 
  position: 
    x: 3.7725074515
    y: -1.61919401805
    z: 0.0
  orientation: 
    x: 0.0
    y: 0.0
    z: -0.201329608375
    w: 0.979523551933
---
header: 
  seq: 357
  stamp: 
    secs: 0
    nsecs:         0
  frame_id: /robot_frame
pose: 
  position: 
    x: 3.90767748688
    y: -1.66048039801
    z: 0.0
  orientation: 
    x: 0.0
    y: 0.0
    z: -0.199555918142
    w: 0.979886440122
---
header: 
  seq: 358
  stamp: 
    secs: 0
    nsecs:         0
  frame_id: /robot_frame
pose: 
  position: 
    x: 3.90767748688
    y: -1.66048039801
    z: 0.0
  orientation: 
    x: 0.0
    y: 0.0
    z: -0.199555918142
    w: 0.979886440122
---
header: 
  seq: 359
  stamp: 
    secs: 0
    nsecs:         0
  frame_id: /robot_frame
pose: 
  position: 
    x: 3.90767748688
    y: -1.66048039801
    z: 0.0
  orientation: 
    x: 0.0
    y: 0.0
    z: -0.199555918142
    w: 0.979886440122
---
header: 
  seq: 360
  stamp: 
    secs: 0
    nsecs:         0
  frame_id: /robot_frame
pose: 
  position: 
    x: 3.90767748688
    y: -1.66048039801
    z: 0.0
  orientation: 
    x: 0.0
    y: 0.0
    z: -0.199555918142
    w: 0.979886440122
---
header: 
  seq: 361
  stamp: 
    secs: 0
    nsecs:         0
  frame_id: /robot_frame
pose: 
  position: 
    x: 3.90767748688
    y: -1.66048039801
    z: 0.0
  orientation: 
    x: 0.0
    y: 0.0
    z: -0.199555918142
    w: 0.979886440122
---
header: 
  seq: 362
  stamp: 
    secs: 0
    nsecs:         0
  frame_id: /robot_frame
pose: 
  position: 
    x: 3.90767748688
    y: -1.66048039801
    z: 0.0
  orientation: 
    x: 0.0
    y: 0.0
    z: -0.199555918142
    w: 0.979886440122
---
header: 
  seq: 363
  stamp: 
    secs: 0
    nsecs:         0
  frame_id: /robot_frame
pose: 
  position: 
    x: 3.58852861786
    y: -1.48742811524
    z: 0.0
  orientation: 
    x: 0.0
    y: 0.0
    z: -0.195208222301
    w: 0.980761821212
---
header: 
  seq: 364
  stamp: 
    secs: 0
    nsecs:         0
  frame_id: /robot_frame
pose: 
  position: 
    x: 3.58852861786
    y: -1.48742811524
    z: 0.0
  orientation: 
    x: 0.0
    y: 0.0
    z: -0.195208222301
    w: 0.980761821212
---
header: 
  seq: 365
  stamp: 
    secs: 0
    nsecs:         0
  frame_id: /robot_frame
pose: 
  position: 
    x: 3.58852861786
    y: -1.48742811524
    z: 0.0
  orientation: 
    x: 0.0
    y: 0.0
    z: -0.195208222301
    w: 0.980761821212
---
header: 
  seq: 366
  stamp: 
    secs: 0
    nsecs:         0
  frame_id: /robot_frame
pose: 
  position: 
    x: 3.58852861786
    y: -1.48742811524
    z: 0.0
  orientation: 
    x: 0.0
    y: 0.0
    z: -0.195208222301
    w: 0.980761821212
---
header: 
  seq: 367
  stamp: 
    secs: 0
    nsecs:         0
  frame_id: /robot_frame
pose: 
  position: 
    x: 3.27226445571
    y: -1.35992296782
    z: 0.0
  orientation: 
    x: 0.0
    y: 0.0
    z: -0.195666482025
    w: 0.980670499104
---
header: 
  seq: 368
  stamp: 
    secs: 0
    nsecs:         0
  frame_id: /robot_frame
pose: 
  position: 
    x: 3.27226445571
    y: -1.35992296782
    z: 0.0
  orientation: 
    x: 0.0
    y: 0.0
    z: -0.195666482025
    w: 0.980670499104
---
header: 
  seq: 369
  stamp: 
    secs: 0
    nsecs:         0
  frame_id: /robot_frame
pose: 
  position: 
    x: 3.27226445571
    y: -1.35992296782
    z: 0.0
  orientation: 
    x: 0.0
    y: 0.0
    z: -0.195666482025
    w: 0.980670499104
---
header: 
  seq: 370
  stamp: 
    secs: 0
    nsecs:         0
  frame_id: /robot_frame
pose: 
  position: 
    x: 3.27226445571
    y: -1.35992296782
    z: 0.0
  orientation: 
    x: 0.0
    y: 0.0
    z: -0.195666482025
    w: 0.980670499104
---
header: 
  seq: 371
  stamp: 
    secs: 0
    nsecs:         0
  frame_id: /robot_frame
pose: 
  position: 
    x: 3.27226445571
    y: -1.35992296782
    z: 0.0
  orientation: 
    x: 0.0
    y: 0.0
    z: -0.195666482025
    w: 0.980670499104
---
header: 
  seq: 372
  stamp: 
    secs: 0
    nsecs:         0
  frame_id: /robot_frame
pose: 
  position: 
    x: 3.27226445571
    y: -1.35992296782
    z: 0.0
  orientation: 
    x: 0.0
    y: 0.0
    z: -0.195666482025
    w: 0.980670499104
---
header: 
  seq: 373
  stamp: 
    secs: 0
    nsecs:         0
  frame_id: /robot_frame
pose: 
  position: 
    x: 3.27226445571
    y: -1.35992296782
    z: 0.0
  orientation: 
    x: 0.0
    y: 0.0
    z: -0.195666482025
    w: 0.980670499104
---
header: 
  seq: 374
  stamp: 
    secs: 0
    nsecs:         0
  frame_id: /robot_frame
pose: 
  position: 
    x: 2.85616240835
    y: -1.22944737892
    z: 0.0
  orientation: 
    x: 0.0
    y: 0.0
    z: -0.201844383601
    w: 0.97941760491
---
header: 
  seq: 375
  stamp: 
    secs: 0
    nsecs:         0
  frame_id: /robot_frame
pose: 
  position: 
    x: 2.85616240835
    y: -1.22944737892
    z: 0.0
  orientation: 
    x: 0.0
    y: 0.0
    z: -0.201844383601
    w: 0.97941760491
---
header: 
  seq: 376
  stamp: 
    secs: 0
    nsecs:         0
  frame_id: /robot_frame
pose: 
  position: 
    x: 2.85616240835
    y: -1.22944737892
    z: 0.0
  orientation: 
    x: 0.0
    y: 0.0
    z: -0.201844383601
    w: 0.97941760491
---
header: 
  seq: 377
  stamp: 
    secs: 0
    nsecs:         0
  frame_id: /robot_frame
pose: 
  position: 
    x: 2.85616240835
    y: -1.22944737892
    z: 0.0
  orientation: 
    x: 0.0
    y: 0.0
    z: -0.201844383601
    w: 0.97941760491
---
header: 
  seq: 378
  stamp: 
    secs: 0
    nsecs:         0
  frame_id: /robot_frame
pose: 
  position: 
    x: 3.36320649657
    y: -1.52983229056
    z: 0.0
  orientation: 
    x: 0.0
    y: 0.0
    z: -0.211832386349
    w: 0.97730601149
---
header: 
  seq: 379
  stamp: 
    secs: 0
    nsecs:         0
  frame_id: /robot_frame
pose: 
  position: 
    x: 3.36320649657
    y: -1.52983229056
    z: 0.0
  orientation: 
    x: 0.0
    y: 0.0
    z: -0.211832386349
    w: 0.97730601149
---
header: 
  seq: 380
  stamp: 
    secs: 0
    nsecs:         0
  frame_id: /robot_frame
pose: 
  position: 
    x: 3.36320649657
    y: -1.52983229056
    z: 0.0
  orientation: 
    x: 0.0
    y: 0.0
    z: -0.211832386349
    w: 0.97730601149
---
header: 
  seq: 381
  stamp: 
    secs: 0
    nsecs:         0
  frame_id: /robot_frame
pose: 
  position: 
    x: 3.36320649657
    y: -1.52983229056
    z: 0.0
  orientation: 
    x: 0.0
    y: 0.0
    z: -0.211832386349
    w: 0.97730601149
---
header: 
  seq: 382
  stamp: 
    secs: 0
    nsecs:         0
  frame_id: /robot_frame
pose: 
  position: 
    x: 3.36320649657
    y: -1.52983229056
    z: 0.0
  orientation: 
    x: 0.0
    y: 0.0
    z: -0.211832386349
    w: 0.97730601149
---
header: 
  seq: 383
  stamp: 
    secs: 0
    nsecs:         0
  frame_id: /robot_frame
pose: 
  position: 
    x: 3.36320649657
    y: -1.52983229056
    z: 0.0
  orientation: 
    x: 0.0
    y: 0.0
    z: -0.211832386349
    w: 0.97730601149
---
header: 
  seq: 384
  stamp: 
    secs: 0
    nsecs:         0
  frame_id: /robot_frame
pose: 
  position: 
    x: 3.92506868001
    y: -1.83087911562
    z: 0.0
  orientation: 
    x: 0.0
    y: 0.0
    z: -0.216499833089
    w: 0.976282654907
---
header: 
  seq: 385
  stamp: 
    secs: 0
    nsecs:         0
  frame_id: /robot_frame
pose: 
  position: 
    x: 3.92506868001
    y: -1.83087911562
    z: 0.0
  orientation: 
    x: 0.0
    y: 0.0
    z: -0.216499833089
    w: 0.976282654907
---
header: 
  seq: 386
  stamp: 
    secs: 0
    nsecs:         0
  frame_id: /robot_frame
pose: 
  position: 
    x: 3.92506868001
    y: -1.83087911562
    z: 0.0
  orientation: 
    x: 0.0
    y: 0.0
    z: -0.216499833089
    w: 0.976282654907
---
header: 
  seq: 387
  stamp: 
    secs: 0
    nsecs:         0
  frame_id: /robot_frame
pose: 
  position: 
    x: 3.92506868001
    y: -1.83087911562
    z: 0.0
  orientation: 
    x: 0.0
    y: 0.0
    z: -0.216499833089
    w: 0.976282654907
---
header: 
  seq: 388
  stamp: 
    secs: 0
    nsecs:         0
  frame_id: /robot_frame
pose: 
  position: 
    x: 3.92506868001
    y: -1.83087911562
    z: 0.0
  orientation: 
    x: 0.0
    y: 0.0
    z: -0.216499833089
    w: 0.976282654907
---
header: 
  seq: 389
  stamp: 
    secs: 0
    nsecs:         0
  frame_id: /robot_frame
pose: 
  position: 
    x: 3.92506868001
    y: -1.83087911562
    z: 0.0
  orientation: 
    x: 0.0
    y: 0.0
    z: -0.216499833089
    w: 0.976282654907
---
header: 
  seq: 390
  stamp: 
    secs: 0
    nsecs:         0
  frame_id: /robot_frame
pose: 
  position: 
    x: 3.50260464796
    y: -1.6530019873
    z: 0.0
  orientation: 
    x: 0.0
    y: 0.0
    z: -0.21869054631
    w: 0.975794263641
---
header: 
  seq: 391
  stamp: 
    secs: 0
    nsecs:         0
  frame_id: /robot_frame
pose: 
  position: 
    x: 3.50260464796
    y: -1.6530019873
    z: 0.0
  orientation: 
    x: 0.0
    y: 0.0
    z: -0.21869054631
    w: 0.975794263641
---
header: 
  seq: 392
  stamp: 
    secs: 0
    nsecs:         0
  frame_id: /robot_frame
pose: 
  position: 
    x: 3.50260464796
    y: -1.6530019873
    z: 0.0
  orientation: 
    x: 0.0
    y: 0.0
    z: -0.21869054631
    w: 0.975794263641
---
header: 
  seq: 393
  stamp: 
    secs: 0
    nsecs:         0
  frame_id: /robot_frame
pose: 
  position: 
    x: 3.50260464796
    y: -1.6530019873
    z: 0.0
  orientation: 
    x: 0.0
    y: 0.0
    z: -0.21869054631
    w: 0.975794263641
---
header: 
  seq: 394
  stamp: 
    secs: 0
    nsecs:         0
  frame_id: /robot_frame
pose: 
  position: 
    x: 3.50260464796
    y: -1.6530019873
    z: 0.0
  orientation: 
    x: 0.0
    y: 0.0
    z: -0.21869054631
    w: 0.975794263641
---
header: 
  seq: 395
  stamp: 
    secs: 0
    nsecs:         0
  frame_id: /robot_frame
pose: 
  position: 
    x: 3.34326634245
    y: -1.56800671133
    z: 0.0
  orientation: 
    x: 0.0
    y: 0.0
    z: -0.217519664407
    w: 0.976055938764
---
header: 
  seq: 396
  stamp: 
    secs: 0
    nsecs:         0
  frame_id: /robot_frame
pose: 
  position: 
    x: 3.34326634245
    y: -1.56800671133
    z: 0.0
  orientation: 
    x: 0.0
    y: 0.0
    z: -0.217519664407
    w: 0.976055938764
---
header: 
  seq: 397
  stamp: 
    secs: 0
    nsecs:         0
  frame_id: /robot_frame
pose: 
  position: 
    x: 3.34326634245
    y: -1.56800671133
    z: 0.0
  orientation: 
    x: 0.0
    y: 0.0
    z: -0.217519664407
    w: 0.976055938764
---
header: 
  seq: 398
  stamp: 
    secs: 0
    nsecs:         0
  frame_id: /robot_frame
pose: 
  position: 
    x: 3.34326634245
    y: -1.56800671133
    z: 0.0
  orientation: 
    x: 0.0
    y: 0.0
    z: -0.217519664407
    w: 0.976055938764
---
header: 
  seq: 399
  stamp: 
    secs: 0
    nsecs:         0
  frame_id: /robot_frame
pose: 
  position: 
    x: 3.34326634245
    y: -1.56800671133
    z: 0.0
  orientation: 
    x: 0.0
    y: 0.0
    z: -0.217519664407
    w: 0.976055938764
---
header: 
  seq: 400
  stamp: 
    secs: 0
    nsecs:         0
  frame_id: /robot_frame
pose: 
  position: 
    x: 3.34326634245
    y: -1.56800671133
    z: 0.0
  orientation: 
    x: 0.0
    y: 0.0
    z: -0.217519664407
    w: 0.976055938764
---
header: 
  seq: 401
  stamp: 
    secs: 0
    nsecs:         0
  frame_id: /robot_frame
pose: 
  position: 
    x: 3.3657731915
    y: -1.56079423161
    z: 0.0
  orientation: 
    x: 0.0
    y: 0.0
    z: -0.215403047542
    w: 0.976525231169
---
header: 
  seq: 402
  stamp: 
    secs: 0
    nsecs:         0
  frame_id: /robot_frame
pose: 
  position: 
    x: 3.3657731915
    y: -1.56079423161
    z: 0.0
  orientation: 
    x: 0.0
    y: 0.0
    z: -0.215403047542
    w: 0.976525231169
---
header: 
  seq: 403
  stamp: 
    secs: 0
    nsecs:         0
  frame_id: /robot_frame
pose: 
  position: 
    x: 3.3657731915
    y: -1.56079423161
    z: 0.0
  orientation: 
    x: 0.0
    y: 0.0
    z: -0.215403047542
    w: 0.976525231169
---
header: 
  seq: 404
  stamp: 
    secs: 0
    nsecs:         0
  frame_id: /robot_frame
pose: 
  position: 
    x: 3.3657731915
    y: -1.56079423161
    z: 0.0
  orientation: 
    x: 0.0
    y: 0.0
    z: -0.215403047542
    w: 0.976525231169
---
header: 
  seq: 405
  stamp: 
    secs: 0
    nsecs:         0
  frame_id: /robot_frame
pose: 
  position: 
    x: 3.3657731915
    y: -1.56079423161
    z: 0.0
  orientation: 
    x: 0.0
    y: 0.0
    z: -0.215403047542
    w: 0.976525231169
---
header: 
  seq: 406
  stamp: 
    secs: 0
    nsecs:         0
  frame_id: /robot_frame
pose: 
  position: 
    x: 3.27918865983
    y: -1.57393453072
    z: 0.0
  orientation: 
    x: 0.0
    y: 0.0
    z: -0.221888247411
    w: 0.975072102801
---
header: 
  seq: 407
  stamp: 
    secs: 0
    nsecs:         0
  frame_id: /robot_frame
pose: 
  position: 
    x: 3.27918865983
    y: -1.57393453072
    z: 0.0
  orientation: 
    x: 0.0
    y: 0.0
    z: -0.221888247411
    w: 0.975072102801
---
header: 
  seq: 408
  stamp: 
    secs: 0
    nsecs:         0
  frame_id: /robot_frame
pose: 
  position: 
    x: 3.27918865983
    y: -1.57393453072
    z: 0.0
  orientation: 
    x: 0.0
    y: 0.0
    z: -0.221888247411
    w: 0.975072102801
---
header: 
  seq: 409
  stamp: 
    secs: 0
    nsecs:         0
  frame_id: /robot_frame
pose: 
  position: 
    x: 3.27918865983
    y: -1.57393453072
    z: 0.0
  orientation: 
    x: 0.0
    y: 0.0
    z: -0.221888247411
    w: 0.975072102801
---
header: 
  seq: 410
  stamp: 
    secs: 0
    nsecs:         0
  frame_id: /robot_frame
pose: 
  position: 
    x: 3.5199462082
    y: -1.81423978067
    z: 0.0
  orientation: 
    x: 0.0
    y: 0.0
    z: -0.235713279791
    w: 0.971822643146
---
header: 
  seq: 411
  stamp: 
    secs: 0
    nsecs:         0
  frame_id: /robot_frame
pose: 
  position: 
    x: 3.5199462082
    y: -1.81423978067
    z: 0.0
  orientation: 
    x: 0.0
    y: 0.0
    z: -0.235713279791
    w: 0.971822643146
---
header: 
  seq: 412
  stamp: 
    secs: 0
    nsecs:         0
  frame_id: /robot_frame
pose: 
  position: 
    x: 3.5199462082
    y: -1.81423978067
    z: 0.0
  orientation: 
    x: 0.0
    y: 0.0
    z: -0.235713279791
    w: 0.971822643146
---
header: 
  seq: 413
  stamp: 
    secs: 0
    nsecs:         0
  frame_id: /robot_frame
pose: 
  position: 
    x: 3.5199462082
    y: -1.81423978067
    z: 0.0
  orientation: 
    x: 0.0
    y: 0.0
    z: -0.235713279791
    w: 0.971822643146
---
header: 
  seq: 414
  stamp: 
    secs: 0
    nsecs:         0
  frame_id: /robot_frame
pose: 
  position: 
    x: 3.5199462082
    y: -1.81423978067
    z: 0.0
  orientation: 
    x: 0.0
    y: 0.0
    z: -0.235713279791
    w: 0.971822643146
---
header: 
  seq: 415
  stamp: 
    secs: 0
    nsecs:         0
  frame_id: /robot_frame
pose: 
  position: 
    x: 3.59610811292
    y: -1.89638309176
    z: 0.0
  orientation: 
    x: 0.0
    y: 0.0
    z: -0.24026715554
    w: 0.970706801238
---
header: 
  seq: 416
  stamp: 
    secs: 0
    nsecs:         0
  frame_id: /robot_frame
pose: 
  position: 
    x: 3.59610811292
    y: -1.89638309176
    z: 0.0
  orientation: 
    x: 0.0
    y: 0.0
    z: -0.24026715554
    w: 0.970706801238
---
header: 
  seq: 417
  stamp: 
    secs: 0
    nsecs:         0
  frame_id: /robot_frame
pose: 
  position: 
    x: 3.59610811292
    y: -1.89638309176
    z: 0.0
  orientation: 
    x: 0.0
    y: 0.0
    z: -0.24026715554
    w: 0.970706801238
---
header: 
  seq: 418
  stamp: 
    secs: 0
    nsecs:         0
  frame_id: /robot_frame
pose: 
  position: 
    x: 3.59610811292
    y: -1.89638309176
    z: 0.0
  orientation: 
    x: 0.0
    y: 0.0
    z: -0.24026715554
    w: 0.970706801238
---
header: 
  seq: 419
  stamp: 
    secs: 0
    nsecs:         0
  frame_id: /robot_frame
pose: 
  position: 
    x: 3.79479314144
    y: -2.04579857302
    z: 0.0
  orientation: 
    x: 0.0
    y: 0.0
    z: -0.244710116719
    w: 0.96959628649
---
header: 
  seq: 420
  stamp: 
    secs: 0
    nsecs:         0
  frame_id: /robot_frame
pose: 
  position: 
    x: 3.79479314144
    y: -2.04579857302
    z: 0.0
  orientation: 
    x: 0.0
    y: 0.0
    z: -0.244710116719
    w: 0.96959628649
---
header: 
  seq: 421
  stamp: 
    secs: 0
    nsecs:         0
  frame_id: /robot_frame
pose: 
  position: 
    x: 3.79479314144
    y: -2.04579857302
    z: 0.0
  orientation: 
    x: 0.0
    y: 0.0
    z: -0.244710116719
    w: 0.96959628649
---
header: 
  seq: 422
  stamp: 
    secs: 0
    nsecs:         0
  frame_id: /robot_frame
pose: 
  position: 
    x: 3.79479314144
    y: -2.04579857302
    z: 0.0
  orientation: 
    x: 0.0
    y: 0.0
    z: -0.244710116719
    w: 0.96959628649
---
header: 
  seq: 423
  stamp: 
    secs: 0
    nsecs:         0
  frame_id: /robot_frame
pose: 
  position: 
    x: 3.79479314144
    y: -2.04579857302
    z: 0.0
  orientation: 
    x: 0.0
    y: 0.0
    z: -0.244710116719
    w: 0.96959628649
---
header: 
  seq: 424
  stamp: 
    secs: 0
    nsecs:         0
  frame_id: /robot_frame
pose: 
  position: 
    x: 3.79479314144
    y: -2.04579857302
    z: 0.0
  orientation: 
    x: 0.0
    y: 0.0
    z: -0.244710116719
    w: 0.96959628649
---
header: 
  seq: 425
  stamp: 
    secs: 0
    nsecs:         0
  frame_id: /robot_frame
pose: 
  position: 
    x: 3.79479314144
    y: -2.04579857302
    z: 0.0
  orientation: 
    x: 0.0
    y: 0.0
    z: -0.244710116719
    w: 0.96959628649
---
header: 
  seq: 426
  stamp: 
    secs: 0
    nsecs:         0
  frame_id: /robot_frame
pose: 
  position: 
    x: 3.79479314144
    y: -2.04579857302
    z: 0.0
  orientation: 
    x: 0.0
    y: 0.0
    z: -0.244710116719
    w: 0.96959628649
---
header: 
  seq: 427
  stamp: 
    secs: 0
    nsecs:         0
  frame_id: /robot_frame
pose: 
  position: 
    x: 3.79479314144
    y: -2.04579857302
    z: 0.0
  orientation: 
    x: 0.0
    y: 0.0
    z: -0.244710116719
    w: 0.96959628649
---
header: 
  seq: 428
  stamp: 
    secs: 0
    nsecs:         0
  frame_id: /robot_frame
pose: 
  position: 
    x: 3.69869616341
    y: -2.00479438714
    z: 0.0
  orientation: 
    x: 0.0
    y: 0.0
    z: -0.245805671734
    w: 0.969319127916
---
header: 
  seq: 429
  stamp: 
    secs: 0
    nsecs:         0
  frame_id: /robot_frame
pose: 
  position: 
    x: 3.69869616341
    y: -2.00479438714
    z: 0.0
  orientation: 
    x: 0.0
    y: 0.0
    z: -0.245805671734
    w: 0.969319127916
---
header: 
  seq: 430
  stamp: 
    secs: 0
    nsecs:         0
  frame_id: /robot_frame
pose: 
  position: 
    x: 3.69869616341
    y: -2.00479438714
    z: 0.0
  orientation: 
    x: 0.0
    y: 0.0
    z: -0.245805671734
    w: 0.969319127916
---
header: 
  seq: 431
  stamp: 
    secs: 0
    nsecs:         0
  frame_id: /robot_frame
pose: 
  position: 
    x: 3.69869616341
    y: -2.00479438714
    z: 0.0
  orientation: 
    x: 0.0
    y: 0.0
    z: -0.245805671734
    w: 0.969319127916
---
header: 
  seq: 432
  stamp: 
    secs: 0
    nsecs:         0
  frame_id: /robot_frame
pose: 
  position: 
    x: 3.69869616341
    y: -2.00479438714
    z: 0.0
  orientation: 
    x: 0.0
    y: 0.0
    z: -0.245805671734
    w: 0.969319127916
---
header: 
  seq: 433
  stamp: 
    secs: 0
    nsecs:         0
  frame_id: /robot_frame
pose: 
  position: 
    x: 3.26950049698
    y: -1.6975879699
    z: 0.0
  orientation: 
    x: 0.0
    y: 0.0
    z: -0.237170596515
    w: 0.971468017049
---
header: 
  seq: 434
  stamp: 
    secs: 0
    nsecs:         0
  frame_id: /robot_frame
pose: 
  position: 
    x: 3.26950049698
    y: -1.6975879699
    z: 0.0
  orientation: 
    x: 0.0
    y: 0.0
    z: -0.237170596515
    w: 0.971468017049
---
header: 
  seq: 435
  stamp: 
    secs: 0
    nsecs:         0
  frame_id: /robot_frame
pose: 
  position: 
    x: 3.26950049698
    y: -1.6975879699
    z: 0.0
  orientation: 
    x: 0.0
    y: 0.0
    z: -0.237170596515
    w: 0.971468017049
---
header: 
  seq: 436
  stamp: 
    secs: 0
    nsecs:         0
  frame_id: /robot_frame
pose: 
  position: 
    x: 3.26950049698
    y: -1.6975879699
    z: 0.0
  orientation: 
    x: 0.0
    y: 0.0
    z: -0.237170596515
    w: 0.971468017049
---
header: 
  seq: 437
  stamp: 
    secs: 0
    nsecs:         0
  frame_id: /robot_frame
pose: 
  position: 
    x: 3.44189947897
    y: -1.80645017672
    z: 0.0
  orientation: 
    x: 0.0
    y: 0.0
    z: -0.239315882884
    w: 0.970941763547
---
header: 
  seq: 438
  stamp: 
    secs: 0
    nsecs:         0
  frame_id: /robot_frame
pose: 
  position: 
    x: 3.44189947897
    y: -1.80645017672
    z: 0.0
  orientation: 
    x: 0.0
    y: 0.0
    z: -0.239315882884
    w: 0.970941763547
---
header: 
  seq: 439
  stamp: 
    secs: 0
    nsecs:         0
  frame_id: /robot_frame
pose: 
  position: 
    x: 3.44189947897
    y: -1.80645017672
    z: 0.0
  orientation: 
    x: 0.0
    y: 0.0
    z: -0.239315882884
    w: 0.970941763547
---
header: 
  seq: 440
  stamp: 
    secs: 0
    nsecs:         0
  frame_id: /robot_frame
pose: 
  position: 
    x: 3.44189947897
    y: -1.80645017672
    z: 0.0
  orientation: 
    x: 0.0
    y: 0.0
    z: -0.239315882884
    w: 0.970941763547
---
header: 
  seq: 441
  stamp: 
    secs: 0
    nsecs:         0
  frame_id: /robot_frame
pose: 
  position: 
    x: 3.44189947897
    y: -1.80645017672
    z: 0.0
  orientation: 
    x: 0.0
    y: 0.0
    z: -0.239315882884
    w: 0.970941763547
---
header: 
  seq: 442
  stamp: 
    secs: 0
    nsecs:         0
  frame_id: /robot_frame
pose: 
  position: 
    x: 3.31995692959
    y: -1.83397802509
    z: 0.0
  orientation: 
    x: 0.0
    y: 0.0
    z: -0.249676227829
    w: 0.96832937643
---
header: 
  seq: 443
  stamp: 
    secs: 0
    nsecs:         0
  frame_id: /robot_frame
pose: 
  position: 
    x: 3.31995692959
    y: -1.83397802509
    z: 0.0
  orientation: 
    x: 0.0
    y: 0.0
    z: -0.249676227829
    w: 0.96832937643
---
header: 
  seq: 444
  stamp: 
    secs: 0
    nsecs:         0
  frame_id: /robot_frame
pose: 
  position: 
    x: 3.31995692959
    y: -1.83397802509
    z: 0.0
  orientation: 
    x: 0.0
    y: 0.0
    z: -0.249676227829
    w: 0.96832937643
---
header: 
  seq: 445
  stamp: 
    secs: 0
    nsecs:         0
  frame_id: /robot_frame
pose: 
  position: 
    x: 3.31995692959
    y: -1.83397802509
    z: 0.0
  orientation: 
    x: 0.0
    y: 0.0
    z: -0.249676227829
    w: 0.96832937643
---
header: 
  seq: 446
  stamp: 
    secs: 0
    nsecs:         0
  frame_id: /robot_frame
pose: 
  position: 
    x: 3.31995692959
    y: -1.83397802509
    z: 0.0
  orientation: 
    x: 0.0
    y: 0.0
    z: -0.249676227829
    w: 0.96832937643
---
header: 
  seq: 447
  stamp: 
    secs: 0
    nsecs:         0
  frame_id: /robot_frame
pose: 
  position: 
    x: 3.61922190732
    y: -2.05197469796
    z: 0.0
  orientation: 
    x: 0.0
    y: 0.0
    z: -0.255038641272
    w: 0.966930861778
---
header: 
  seq: 448
  stamp: 
    secs: 0
    nsecs:         0
  frame_id: /robot_frame
pose: 
  position: 
    x: 3.61922190732
    y: -2.05197469796
    z: 0.0
  orientation: 
    x: 0.0
    y: 0.0
    z: -0.255038641272
    w: 0.966930861778
---
header: 
  seq: 449
  stamp: 
    secs: 0
    nsecs:         0
  frame_id: /robot_frame
pose: 
  position: 
    x: 3.61922190732
    y: -2.05197469796
    z: 0.0
  orientation: 
    x: 0.0
    y: 0.0
    z: -0.255038641272
    w: 0.966930861778
---
header: 
  seq: 450
  stamp: 
    secs: 0
    nsecs:         0
  frame_id: /robot_frame
pose: 
  position: 
    x: 3.61922190732
    y: -2.05197469796
    z: 0.0
  orientation: 
    x: 0.0
    y: 0.0
    z: -0.255038641272
    w: 0.966930861778
---
header: 
  seq: 451
  stamp: 
    secs: 0
    nsecs:         0
  frame_id: /robot_frame
pose: 
  position: 
    x: 3.61922190732
    y: -2.05197469796
    z: 0.0
  orientation: 
    x: 0.0
    y: 0.0
    z: -0.255038641272
    w: 0.966930861778
---
header: 
  seq: 452
  stamp: 
    secs: 0
    nsecs:         0
  frame_id: /robot_frame
pose: 
  position: 
    x: 3.86441438089
    y: -2.17832995979
    z: 0.0
  orientation: 
    x: 0.0
    y: 0.0
    z: -0.253838143152
    w: 0.967246709522
---
header: 
  seq: 453
  stamp: 
    secs: 0
    nsecs:         0
  frame_id: /robot_frame
pose: 
  position: 
    x: 3.86441438089
    y: -2.17832995979
    z: 0.0
  orientation: 
    x: 0.0
    y: 0.0
    z: -0.253838143152
    w: 0.967246709522
---
header: 
  seq: 454
  stamp: 
    secs: 0
    nsecs:         0
  frame_id: /robot_frame
